     3.04           OBSERVATION DATA    M: Mixed            RINEX VERSION / TYPE
RTKCONV-EX 2.5.0                        20251028 034144 UTC PGM / RUN BY / DATE 
format: u-blox UBX                                          COMMENT             
log: C:\Users\abc66\OneDrive\Desktop\lab\COM9___9600_251027_COMMENT             
  012406.ubx                                                COMMENT             
                                                            MARKER NAME         
                                                            MARKER NUMBER       
                                                            MARKER TYPE         
                                                            OBSERVER / AGENCY   
                                                            REC # / TYPE / VERS 
                                                            ANT # / TYPE        
 -2418200.4297  5385772.8210  2405764.1324                  APPROX POSITION XYZ 
        0.0000        0.0000        0.0000                  ANTENNA: DELTA H/E/N
G    8 C1C L1C D1C S1C C2X L2X D2X S2X                      SYS / # / OBS TYPES 
R    8 C1C L1C D1C S1C C2C L2C D2C S2C                      SYS / # / OBS TYPES 
E    8 C1X L1X D1X S1X C7X L7X D7X S7X                      SYS / # / OBS TYPES 
J    8 C1C L1C D1C S1C C2X L2X D2X S2X                      SYS / # / OBS TYPES 
S    4 C1C L1C D1C S1C                                      SYS / # / OBS TYPES 
C    8 C2I L2I D2I S2I C7I L7I D7I S7I                      SYS / # / OBS TYPES 
  2025    10    27    01    24   54.0030000     GPS         TIME OF FIRST OBS   
  2025    10    27    01    28   37.0030000     GPS         TIME OF LAST OBS    
G L1C                                                       SYS / PHASE SHIFT   
G L2X  0.00000                                              SYS / PHASE SHIFT   
R L1C                                                       SYS / PHASE SHIFT   
R L2C                                                       SYS / PHASE SHIFT   
E L1X  0.00000                                              SYS / PHASE SHIFT   
E L7X  0.00000                                              SYS / PHASE SHIFT   
J L1C                                                       SYS / PHASE SHIFT   
J L2X  0.00000                                              SYS / PHASE SHIFT   
S L1C                                                       SYS / PHASE SHIFT   
C L2I                                                       SYS / PHASE SHIFT   
C L7I                                                       SYS / PHASE SHIFT   
 10 R05  1 R06 -4 R07  5 R09 -2 R10 -7 R15  0 R16 -1 R20  2 GLONASS SLOT / FRQ #
    R21  4 R22 -3                                           GLONASS SLOT / FRQ #
 C1C    0.000 C1P    0.000 C2C    0.000 C2P    0.000        GLONASS COD/PHS/BIS 
                                                            END OF HEADER       
> 2025 10 27 01 24 54.0030000  0 34                     
S37  37348743.120   196268970.3222       -274.266          40.000  
G12  24556004.544   129042670.4542       1884.805          39.000    24555999.188                        1468.367          31.000  
G23  21614639.777   113585698.6232       1315.265          46.000    21614634.955    88508318.758        1024.786          41.000  
S28  38171728.584   200593786.9262       -271.808          45.000  
G18  21637644.836   113706593.1272      -1681.769          44.000    21637640.067    88602519.804       -1310.046          37.000  
G24  21494535.348   112954545.0552      -2249.362          45.000    21494531.876    88016514.201       -1752.873          40.000  
C25  23785794.712   123858877.236        -982.356          40.000                                                                  
C06  37226976.622   193850636.860         448.293          44.000    37226964.588   149897560.582         346.552          43.000  
C08  37712000.560   196376281.6511        581.554          40.000    37711988.203   151850549.712         449.834          44.000  
C09  38456106.491   200251038.5941        552.756          36.000    38456100.243   154846781.173         427.982          37.000  
C23  23707864.844   123453074.430        1698.931          44.000                                                                  
C13  37950946.274   197620535.8671        605.829          45.000    37950942.639   152812717.7591        468.375          40.000  
R07  23060306.409                         721.204          33.000                                                                  
R22  22682806.696   121082360.3261       1225.043          37.000    22682810.666                         953.957          27.000  
R09  21923678.217   117071215.843        2931.078          45.000    21923676.527    91055384.3341       2279.785          38.000  
R16  21848137.356   116708829.334        -367.426          42.000    21848131.218    90773506.0891       -286.151          34.000  
R21  21685221.889   116042001.9781      -2898.230          46.000    21685218.936    90254879.224       -2254.559          38.000  
R20  24130685.338   129037615.201       -4426.371          38.000    24130684.812                1      -3443.134          32.000  
S29  37753290.408   198394881.2352       -274.397          42.000  
G32  24521179.262                        1007.728          26.000                                                                  
J07  37348747.250   196268989.6092       -274.586          37.000    37348743.630   152936861.347        -213.772          41.000  
G25  24598653.914                        2594.775          27.000                                                                  
E26  25014812.117   131453724.271       -2308.879          43.000    25014815.168   100724293.293       -1769.111          44.000  
G10  24554738.171                        2500.640          27.000                                                                  
C16  37532332.423   195440705.240         265.635          44.000    37532326.396   151127126.537         205.378          43.000  
R05  24856971.342                       -1729.944          23.000                                                                  
R06  22171611.876   118311969.4271       -312.798          34.000                                                                  
E29  25048757.651   131632107.688       -1022.553          47.000    25048758.822   100860971.979        -783.384          44.000  
E19  25451098.888   133746430.108         358.123          37.000    25451101.720   102481039.983         274.972          38.000  
J03  36833359.942   193560612.0602       -136.346          41.000                                                                  
J02  38029215.048                        -272.830          35.000                                                                  
E33  24691786.506   129756211.496         284.446          42.000                                                                  
E21                                                                  28588905.354                        1377.831          27.000  
J04                                                                  40274563.821   164917606.565         107.048          39.000  
> 2025 10 27 01 24 55.0030000  0 34                     
S37  37348795.193   196269244.2502       -273.342          40.000  
G12  24555646.025   129040785.3401       1885.143          39.000    24555642.661   100551226.134        1469.141          31.000  
G23  21614389.461   113584383.455        1315.643          46.000    21614384.611    88507293.947        1024.921          41.000  
S28  38171780.219   200594058.5302       -271.363          45.000  
G18  21637964.890   113708274.4061      -1681.708          44.000    21637959.989    88603830.277       -1310.333          38.000  
G24  21494963.491   112956794.3221      -2249.640          43.000    21494960.067    88018267.272       -1753.194          39.000  
C25  23785983.373   123859859.978        -982.802          36.000                                                                  
C06  37226890.545   193850188.534         448.750          44.000    37226878.501   149897213.910         346.678          43.000  
C08  37711888.777   196375699.812         582.463          40.000    37711876.438   151850099.808         450.330          43.000  
C09  38456000.246   200250485.864         552.588          36.000    38455993.989   154846353.745         427.934          37.000  
C23  23707538.602   123451375.454        1699.268          44.000                                                                  
C13  37950829.958   197619929.970         606.187          45.000    37950826.289   152812249.213         469.036          40.000  
R07  23060172.060   123442900.208         720.324          34.000                                                                  
R22  22682577.211   121081135.500        1225.046          34.000    22682582.255    94174229.873         952.762          27.000  
R09  21923129.360   117068284.767        2931.346          45.000    21923127.581    91053104.620        2280.224          38.000  
R16  21848206.151   116709197.113        -368.494          36.000    21848199.627                1       -286.112          29.000  
R21  21685763.570   116044900.401       -2898.352          46.000    21685760.502    90257133.510       -2253.839          39.000  
R20  24131513.178   129042041.269       -4425.057          38.000    24131512.382   100366032.2861      -3442.285          32.000  
S29  37753342.577   198395155.4642       -273.741          42.000  
G32  24520985.549   128858648.2013       1002.485          27.000                                                                  
J07  37348799.357   196269263.0441       -273.943          36.000    37348795.744   152937074.811        -213.182          41.000  
G25  24598159.537   129264184.430        2594.659          26.000                                                                  
E26  25015251.768   131456033.403       -2308.662          43.000    25015254.637   100726062.631       -1769.135          44.000  
G10  24554262.927   129033515.537        2500.112          27.000                                                                  
C16  37532281.468   195440439.615         266.064          44.000    37532275.446   151126921.146         205.700          42.000  
R05  24857295.062                       -1727.330          22.000                                                                  
R06  22171670.400   118312282.143        -313.365          33.000                                                                  
E29  25048952.182   131633130.313       -1022.224          47.000    25048953.594   100861755.545        -783.330          44.000  
E19  25451030.722   133746071.822         359.100          38.000    25451033.616   102480765.504         274.854          39.000  
J03  36833385.910   193560748.0902       -135.577          41.000                                                                  
J02  38029266.955   199845139.719        -271.207          35.000                                                                  
E33  24691732.472   129755927.552         284.250          40.000                                                                  
E21                                                                  28588563.555   115114287.419        1377.295          27.000  
J04                                                                  40274537.541   164917499.384         107.593          38.000  
> 2025 10 27 01 24 56.0030000  0 33                     
S37  37348847.135   196269516.8553       -273.084          38.000  
G12  24555287.308   129038900.080        1884.793          39.000    24555285.207   100549757.103        1468.649          31.000  
G23  21614139.039   113583067.740        1315.155          44.000    21614134.189    88506268.716        1024.500          41.000  
S28  38171831.747   200594329.2832       -271.784          43.000  
G18  21638284.904   113709956.009       -1682.599          43.000    21638280.038    88605140.596       -1311.078          38.000  
G24  21495391.545   112959043.828       -2250.488          44.000    21495388.141    88020020.088       -1753.206          38.000  
C25  23786171.899   123860842.493        -983.426          38.000                                                                  
C06  37226804.442   193849739.545         448.423          44.000    37226792.261   149896866.722         346.483          42.000  
C08  37711776.955   196375117.202         581.995          40.000    37711764.554   151849649.282         449.985          43.000  
C09  38455893.999   200249932.352         552.927          35.000    38455887.731   154845925.764         427.638          37.000  
C23  23707212.156   123449676.030        1698.817          43.000                                                                  
C13  37950713.427   197619323.244         606.433          44.000    37950709.802   152811780.093         468.604          40.000  
R07  23060037.575   123442179.064         721.537          32.000                                                                  
R22  22682347.614   121079910.651        1224.024          34.000    22682352.052    94173277.262         952.018          27.000  
R09  21922580.403   117065353.237        2930.714          42.000    21922578.564    91050824.581        2279.477          37.000  
R16  21848274.929   116709564.972        -368.530          39.000    21848268.305    90774076.7353       -286.499          31.000  
R21  21686304.975   116047798.577       -2899.170          43.000    21686302.136    90259387.662       -2255.017          38.000  
R20  24132340.613   129046466.531       -4426.104          35.000    24132339.906   100369474.063       -3442.684          31.000  
S29  37753394.610   198395428.8912       -274.314          41.000  
G32  24520806.182   128857645.0762       1004.707          30.000                                                                  
J07  37348851.319   196269536.117        -272.770          35.000    37348847.822   152937287.595        -212.859          41.000  
G25  24597667.081   129261589.715        2594.385          25.000                                                                  
E26  25015691.380   131458342.065       -2309.146          42.000    25015693.888   100727831.597       -1769.473          43.000  
G10  24553788.282   129031015.069        2499.716          26.000                                                                  
C16  37532230.356   195440173.332         265.746          44.000    37532224.262   151126715.250         205.246          42.000  
R06  22171728.742   118312593.871        -311.697          31.000                                                                  
E29  25049146.879   131634152.174       -1022.394          45.000    25049147.980   100862538.533        -783.245          44.000  
E19  25450962.430   133745712.974         358.398          35.000    25450965.292   102480490.518         274.403          38.000  
J03  36833411.671   193560882.9081       -135.944          40.000                                                                  
J02  38029318.581   199845411.175        -271.497          33.000                                                                  
E33  24691678.339   129755643.237         283.773          38.000                                                                  
E21                                                                  28588221.626   115112909.554        1377.630          27.000  
J04                                                                  40274511.151   164917391.503         107.417          39.000  
> 2025 10 27 01 24 57.0030000  0 33                     
S37  37348899.081   196269789.817        -273.487          39.000  
G12  24554928.559   129037014.735        1885.374          38.000    24554926.515   100548288.019        1469.133          32.000  
G23  21613888.688   113581752.081        1315.247          45.000    21613883.796    88505243.541        1025.061          41.000  
S28  38171883.189   200594599.760        -270.581          43.000  
G18  21638605.011   113711638.013       -1682.397          42.000    21638600.085    88606451.267       -1311.108          37.000  
G24  21495819.769   112961293.671       -2250.396          43.000    21495816.217    88021773.214       -1753.338          39.000  
C25  23786360.694   123861825.306        -983.350          37.000                                                                  
C06  37226718.156   193849290.518         448.895          43.000    37226705.965   149896519.488         347.021          42.000  
C08  37711665.101   196374534.386         582.908          39.000    37711652.580   151849198.610         450.761          43.000  
C09  38455787.618   200249378.829         553.542          34.000    38455781.355   154845497.752         427.842          36.000  
C23  23706885.833   123447976.794        1699.117          42.000                                                                  
C13  37950596.848   197618716.297         606.683          43.000    37950593.209   152811310.736         469.198          40.000  
R07  23059902.976   123441457.766         720.631          30.000                                                                  
R22  22682118.243   121078686.384        1223.920          31.000    22682122.834    94172325.001         952.121          26.000  
R09  21922031.521   117062421.934        2930.899          41.000    21922029.544    91048544.661        2279.999          37.000  
R16  21848344.036   116709933.407        -368.811          37.000    21848337.979    90774366.3503       -287.109          35.000  
R21  21686846.657   116050697.127       -2899.121          42.000    21686843.795    90261642.071       -2254.504          38.000  
R20  24133168.150   129050891.439       -4425.157          34.000    24133167.393   100372915.639       -3441.237          31.000  
S29  37753446.622   198395702.086        -273.172          42.000  
G32  24520615.847                         998.724          22.000                                                                  
J07  37348903.209   196269809.055        -272.521          35.000    37348899.709   152937500.292        -212.751          41.000  
G25  24597178.107   129258994.746        2594.971          25.000                                                                  
E26  25016130.707   131460650.882       -2309.073          43.000    25016133.281   100729600.694       -1769.269          43.000  
G10  24553312.660   129028514.229        2500.580          26.000                                                                  
C16  37532179.304   195439907.039         266.251          42.000    37532173.099   151126509.328         205.734          42.000  
R06  22171787.139   118312905.473        -312.047          30.000                                                                  
E29  25049341.189   131635173.881       -1021.982          46.000    25049342.331   100863321.395        -782.974          44.000  
E19  25450893.841   133745353.979         358.781          35.000    25450897.043   102480215.462         274.444          38.000  
J03  36833437.347   193561018.146        -135.315          40.000                                                                  
J02  38029370.185   199845682.642        -272.459          30.000                                                                  
E33  24691624.428   129755359.252         283.389          40.000                                                                  
E21                                                                  28587878.221   115111531.417        1377.789          27.000  
J04                                                                  40274484.685   164917283.386         108.159          39.000  
> 2025 10 27 01 24 58.0030000  0 33                     
S37  37348950.996   196270062.892        -272.116          39.000  
G12  24554569.882   129035129.707        1885.437          38.000    24554568.401   100546819.156        1469.147          32.000  
G23  21613638.522   113580436.824        1315.692          46.000    21613633.549    88504218.667        1025.012          41.000  
S28  38171934.722   200594870.443        -270.049          44.000  
G18  21638925.328   113713320.797       -1682.568          43.000    21638920.334    88607762.524       -1310.938          38.000  
G24  21496248.034   112963544.176       -2250.046          44.000    21496244.507    88023526.888       -1753.528          39.000  
C25  23786549.514   123862808.783        -983.347          37.000                                                                  
C06  37226631.963   193848841.792         449.227          44.000    37226619.855   149896172.499         347.578          42.000  
C08  37711553.169   196373951.727         583.319          40.000    37711540.701   151848748.058         450.936          43.000  
C09  38455681.359   200248825.583         553.705          35.000    38455675.082   154845069.961         428.405          36.000  
C23  23706559.519   123446278.096        1699.029          43.000                                                                  
C13  37950480.323   197618109.449         607.461          45.000    37950476.750   152810841.501         469.917          40.000  
R07  23059768.402   123440736.507         721.597          30.000                                                                  
R22  22681888.700   121077463.050        1222.842          32.000    22681893.200    94171373.560         951.153          26.000  
R09  21921482.681   117059491.204        2931.069          42.000    21921480.707    91046265.224        2279.704          37.000  
R16  21848413.151   116710302.834        -369.299          39.000    21848405.143    90774653.6632       -287.439          35.000  
R21  21687388.379   116053596.450       -2899.188          43.000    21687385.590    90263897.107       -2254.858          38.000  
R20  24133995.603   129055316.490       -4424.392          36.000    24133994.800   100376357.366       -3441.788          31.000  
S29  37753498.548   198395975.477        -272.851          42.000  
G32  24520429.077                        1004.200          21.000                                                                  
J07  37348955.161   196270082.166        -272.096          36.000    37348951.625   152937713.087        -212.299          41.000  
G25  24596685.182   129256399.848        2595.288          25.000                                                                  
E26  25016570.244   131462960.197       -2308.900          43.000    25016572.694   100731370.165       -1769.109          44.000  
G10  24552836.968   129026013.488        2501.066          26.000                                                                  
C16  37532128.162   195439641.050         266.438          44.000    37532121.930   151126303.636         206.173          42.000  
R06  22171845.637   118313217.163        -310.611          31.000                                                                  
E29  25049535.725   131636195.775       -1021.354          46.000    25049536.791   100864104.412        -782.667          44.000  
E19  25450825.371   133744995.298         359.213          36.000    25450828.814   102479940.606         275.320          38.000  
J03  36833463.161   193561153.671        -134.937          41.000                                                                  
J02  38029421.434   199845954.169        -270.343          31.000                                                                  
E33  24691570.539   129755075.834         283.666          40.000                                                                  
E21                                                                  28587534.775   115110153.288        1378.714          27.000  
J04                                                                  40274458.179   164917175.308         108.813          39.000  
> 2025 10 27 01 24 59.0030000  0 32                     
S37  37349002.941   196270335.514        -272.430          39.000  
G12  24554211.067   129033244.291        1885.671          38.000    24554209.983   100545349.998        1469.232          32.000  
G23  21613388.154   113579121.329        1315.814          46.000    21613383.161    88503193.615        1024.994          41.000  
S28  38171986.184   200595140.622        -269.750          44.000  
G18  21639245.595   113715003.698       -1683.008          44.000    21639240.569    88609073.872       -1311.151          38.000  
G24  21496676.215   112965794.733       -2250.437          44.000    21496672.807    88025280.561       -1753.710          39.000  
C25  23786738.380   123863792.264        -983.691          36.000                                                                  
C06  37226545.600   193848392.723         449.204          44.000    37226533.643   149895825.254         347.545          42.000  
C08  37711441.212   196373368.545         583.616          40.000    37711428.682   151848297.108         451.293          43.000  
C09  38455575.026   200248271.970         554.025          36.000    38455568.687   154844641.878         427.999          36.000  
C23  23706233.303   123444579.255        1698.783          43.000                                                                  
C13  37950363.660   197617502.099         607.701          45.000    37950360.106   152810371.847         469.741          40.000  
R07  23059633.649   123440014.688         722.103          30.000                                                                  
R22  22681659.419   121076239.962        1223.609          33.000    22681665.182    94170422.279         951.043          27.000  
R09  21920933.824   117056560.374        2930.993          43.000    21920931.799    91043985.644        2279.932          37.000  
R16  21848482.261   116710672.520        -369.537          39.000    21848474.463    90774940.6971       -287.274          34.000  
R21  21687930.140   116056495.853       -2899.329          44.000    21687927.431    90266152.204       -2254.639          38.000  
R20  24134823.077   129059741.025       -4424.233          36.000    24134822.183   100379798.576       -3440.500          31.000  
S29  37753550.511   198396248.362        -272.291          42.000  
J07  37349007.135   196270354.769        -272.289          36.000    37349003.472   152937925.506        -212.278          41.000  
G25  24596191.726                        2598.963          22.000                                                                  
E26  25017009.763   131465269.357       -2309.091          43.000    25017012.065   100733139.519       -1769.200          44.000  
G10  24552360.199   129023512.250        2501.386          26.000                                                                  
C16  37532077.069   195439374.730         266.479          44.000    37532070.791   151126097.690         206.302          42.000  
R06  22171903.905   118313528.344        -309.740          32.000                                                                  
E29  25049730.212   131637217.246       -1021.341          46.000    25049731.079   100864887.087        -782.407          44.000  
E19  25450756.840   133744636.295         359.091          36.000    25450760.476   102479665.502         275.778          39.000  
J03  36833488.824   193561288.798        -134.943          42.000                                                                  
J02  38029472.614   199846225.191        -271.370          32.000                                                                  
E33  24691516.625   129754792.410         283.469          41.000                                                                  
E21                                                                  28587191.942   115108774.636        1378.884          27.000  
J04                                                                  40274431.689   164917066.812         108.835          39.000  
> 2025 10 27 01 25 00.0030000  0 31                     
S37  37349054.617   196270607.328        -271.661          40.000  
G12  24553852.197   129031358.233        1885.997          40.000    24553851.500   100543880.373        1469.075          32.000  
G23  21613137.708   113577805.340        1316.046          48.000    21613132.655    88502168.154        1025.366          42.000  
S28  38172037.428   200595410.071        -269.647          46.000  
G18  21639565.889   113716686.472       -1683.344          46.000    21639560.684    88610385.096       -1311.127          38.000  
G24  21497104.359   112968045.044       -2250.649          46.000    21497101.011    88027034.039       -1753.510          39.000  
C25  23786927.085   123864775.465        -983.229          36.000                                                                  
C06  37226459.233   193847943.046         449.579          44.000    37226447.255   149895477.543         347.625          42.000  
C08  37711328.974   196372784.583         583.969          41.000    37711316.559   151847845.539         451.918          44.000  
C09  38455468.505   200247717.727         554.113          35.000    38455462.186   154844213.284         428.406          36.000  
C23  23705907.035   123442879.994        1699.225          43.000                                                                  
C13  37950246.830   197616893.990         607.962          45.000    37950243.341   152809901.619         470.223          40.000  
R07  23059498.707   123439292.064         722.028          30.000                                                                  
R22  22681430.211   121075016.935        1222.504          34.000    22681436.212    94169470.998         951.038          26.000  
R09  21920384.900   117053629.122        2931.011          42.000    21920382.883    91041705.809        2279.731          38.000  
R16  21848551.441   116711042.291        -370.313          39.000    21848540.835    90775228.343        -288.489          33.000  
R21  21688471.887   116059395.092       -2899.469          45.000    21688469.237    90268407.197       -2255.634          38.000  
R20  24135650.386   129064164.713       -4423.617          36.000    24135649.379   100383239.264       -3440.376          30.000  
S29  37753602.251   198396520.503        -272.083          44.000  
J07  37349058.906   196270626.605        -271.925          36.000    37349055.200   152938137.319        -211.996          41.000  
E26  25017449.236   131467578.083       -2308.788          45.000    25017451.485   100734908.552       -1768.990          44.000  
G10  24551884.795   129021010.112        2502.370          26.000                                                                  
C16  37532025.744   195439107.799         266.770          44.000    37532019.534   151125891.282         206.465          42.000  
R06  22171962.124   118313838.761        -310.524          32.000                                                                  
E29  25049924.327   131638237.989       -1020.682          48.000    25049925.270   100865669.233        -782.130          43.000  
E19  25450688.394   133744276.701         359.508          38.000    25450692.024   102479389.979         275.624          39.000  
J03  36833514.450   193561423.263        -134.521          42.000                                                                  
J02  38029523.666   199846495.366        -269.921          35.000                                                                  
E33  24691462.822   129754508.685         283.758          42.000                                                                  
E21                                                                  28586850.069   115107395.322        1378.876          27.000  
J04                                                                  40274404.945   164916957.607         109.095          39.000  
> 2025 10 27 01 25 01.0030000  0 32                     
S37  37349106.279   196270879.237        -271.393          40.000  
G12  24553493.333   129029472.436        1885.531          41.000    24553493.043   100542410.852        1470.465          32.000  
G23  21612887.416   113576489.684        1315.698          47.000    21612882.276    88501142.969        1024.957          41.000  
S28  38172088.601   200595679.614        -269.641          46.000  
G18  21639886.265   113718369.899       -1683.447          45.000    21639880.981    88611696.900       -1312.225          38.000  
G24  21497532.655   112970295.983       -2250.972          46.000    21497529.389    88028788.016       -1753.572          39.000  
C25  23787116.065   123865759.301        -983.788          36.000                                                                  
C06  37226373.011   193847493.601         449.432          44.000    37226360.856   149895130.000         347.446          42.000  
C08  37711216.913   196372200.726         583.845          41.000    37711204.450   151847394.048         451.672          44.000  
C09  38455362.031   200247163.681         553.907          35.000    38455355.737   154843784.869         428.145          36.000  
C23  23705580.743   123441181.199        1698.554          43.000                                                                  
C13  37950130.049   197616285.896         608.262          45.000    37950126.597   152809431.407         470.343          40.000  
R07  23059363.722   123438569.413         722.511          29.000                                                                  
R22  22681201.230   121073794.736        1221.631          34.000    22681206.220    94168520.366         950.534          26.000  
R09  21919836.058   117050698.382        2930.452          42.000    21919834.068    91039426.374        2279.029          38.000  
R16  21848620.803   116711413.034        -371.368          39.000    21848609.847    90775516.639        -287.732          32.000  
R21  21689013.814   116062294.968       -2899.976          45.000    21689011.127    90270662.625       -2255.457          38.000  
R20  24136477.638   129068588.431       -4423.902          36.000    24136476.579   100386679.860       -3440.234          31.000  
S29  37753654.078   198396792.713        -272.355          44.000  
J07  37349110.586   196270898.510        -271.481          37.000    37349106.916   152938349.208        -211.842          41.000  
E26  25017889.095   131469887.261       -2309.316          45.000    25017890.907   100736677.914       -1769.513          44.000  
G10  24551409.667   129018508.006        2502.152          27.000                                                                  
C16  37531974.594   195438841.106         266.746          44.000    37531968.341   151125685.070         206.117          42.000  
R06  22172020.174   118314149.178        -310.062          33.000                                                                  
E29  25050118.880   131639258.869       -1020.844          47.000    25050119.680   100866451.450        -782.042          43.000  
E19  25450620.052   133743917.292         359.083          37.000    25450623.510   102479114.586         275.381          38.000  
J03  36833540.211   193561557.935        -134.662          42.000                                                                  
J02  38029575.232   199846765.592        -269.922          34.000                                                                  
E33  24691409.331   129754225.498         282.861          42.000                                                                  
E21  28586676.554                        1799.575          25.000    28586506.711   115106015.809        1379.582          27.000  
G32                                                                  24519846.802                         782.747          25.000  
J04                                                                  40274378.330   164916848.392         109.460          40.000  
> 2025 10 27 01 25 02.0030000  0 32                     
S37  37349157.986   196271151.023        -272.032          41.000  
G12  24553134.600   129027586.550        1885.933          38.000    24553134.614   100540941.376        1469.902          31.000  
G23  21612637.110   113575174.052        1315.448          47.000    21612631.938    88500117.795        1024.982          41.000  
S28  38172139.816   200595948.898        -269.366          45.000  
G18  21640206.789   113720053.759       -1684.235          45.000    21640201.469    88613008.962       -1312.048          38.000  
G24  21497961.072   112972547.275       -2251.637          45.000    21497957.741    88030542.284       -1754.455          39.000  
C25  23787305.187   123866743.469        -984.503          36.000                                                                  
C06  37226286.654   193847044.073         449.403          44.000    37226274.583   149894782.419         347.439          42.000  
C08  37711104.610   196371616.624         584.292          40.000    37711092.284   151846942.407         451.562          43.000  
C09  38455255.616   200246609.554         554.401          37.000    38455249.273   154843356.417         428.111          36.000  
C23  23705254.559   123439482.633        1698.182          43.000                                                                  
C13  37950013.343   197615677.530         608.394          45.000    37950009.835   152808960.984         470.438          40.000  
R07  23059228.649   123437846.504         722.313          32.000                                                                  
R22  22680972.235   121072573.043        1220.993          36.000    22680975.119    94167570.132         949.798          26.000  
R09  21919287.217   117047767.889        2930.408          45.000    21919285.354    91037147.069        2278.912          38.000  
R16  21848690.290   116711784.384        -371.423          38.000    21848679.114    90775805.458        -288.173          31.000  
R21  21689555.847   116065195.181       -2900.543          46.000    21689553.153    90272918.349       -2255.731          38.000  
R20  24137304.909   129073011.864       -4423.386          40.000    24137303.726   100390120.303       -3440.658          30.000  
S29  37753705.683   198397064.701        -272.040          42.000  
J07  37349162.244   196271170.295        -271.827          37.000    37349158.668   152938560.935        -211.516          41.000  
E26  25018328.731   131472196.563       -2309.472          44.000    25018330.355   100738447.402       -1769.543          44.000  
G10  24550928.694   129016005.535        2502.391          27.000                                                                  
C16  37531923.329   195438574.372         266.447          44.000    37531917.134   151125478.820         206.021          42.000  
R06  22172078.206   118314459.333        -310.318          34.000                                                                  
E29  25050313.189   131640279.561       -1020.780          47.000    25050314.091   100867233.537        -782.205          44.000  
E19  25450551.658   133743557.739         359.350          38.000    25450555.053   102478839.134         275.422          39.000  
J03  36833565.801   193561692.566        -134.613          43.000                                                                  
J02  38029626.865   199847035.798        -271.493          34.000                                                                  
E33  24691355.469   129753942.567         282.553          40.000                                                                  
E21  28586335.440                        1800.468          24.000    28586163.943   115104635.995        1380.232          27.000  
G32                                                                  24519657.479                         781.010          24.000  
J04                                                                  40274351.620   164916738.954         109.484          39.000  
> 2025 10 27 01 25 03.0030000  0 31                     
S37  37349209.791   196271423.072        -272.644          41.000  
G12  24552775.816   129025701.152        1884.474          39.000    24552776.149   100539472.247        1468.385          32.000  
G23  21612386.801   113573859.083        1314.270          46.000    21612381.666    88499093.157        1023.749          40.000  
S28  38172191.099   200596218.536        -270.389          45.000  
G18  21640527.299   113721738.600       -1685.858          45.000    21640522.215    88614321.826       -1313.800          38.000  
G24  21498389.633   112974799.430       -2252.695          44.000    21498386.412    88032297.198       -1755.105          38.000  
C25  23787494.287   123867728.485        -984.151          36.000                                                                  
C06  37226200.511   193846595.081         448.286          44.000    37226188.336   149894435.218         346.405          42.000  
C08  37710992.568   196371032.878         583.550          39.000    37710980.163   151846491.007         451.441          42.000  
C09  38455149.272   200246055.917         552.347          37.000    38455142.649   154842928.272         429.014          34.000  
C23  23704928.462   123437784.696        1697.509          43.000                                                                  
C13  37949896.651   197615069.530         607.796          44.000    37949893.074   152808490.849         469.270          37.000  
R07  23059093.802   123437133.9783        721.635          31.000                                                                  
R22  22680743.852   121071352.638        1218.535          36.000    22680747.563    94166620.886         948.473          26.000  
R09  21918738.503   117044838.139        2928.308          44.000    21918736.712    91034868.317        2277.872          37.000  
R16  21848760.022   116712156.920        -372.205          39.000    21848749.271    90776095.252        -289.551          31.000  
R21  21690098.025   116068096.319       -2902.429          46.000    21690095.394    90275174.803       -2257.288          38.000  
R20  24138132.295   129077435.648       -4424.643          39.000    24138131.111   100393560.982       -3441.207          30.000  
S29  37753757.486   198397337.075        -273.331          43.000  
J07  37349214.006   196271442.348        -272.783          37.000    37349210.445   152938772.977        -212.656          41.000  
E26  25018768.395   131474506.594       -2311.165          44.000    25018769.648   100740217.405       -1770.624          43.000  
G10  24550452.974   129013503.500        2501.605          26.000                                                                  
C16  37531872.077   195438308.168         265.662          44.000    37531865.976   151125272.970         205.281          42.000  
R06  22172136.417   118314769.970        -312.067          30.000                                                                  
E29  25050507.612   131641300.714       -1022.346          46.000    25050508.368   100868015.961        -783.687          42.000  
E19  25450483.641   133743198.769         358.112          37.000    25450486.712   102478564.069         274.448          39.000  
J03  36833591.481   193561827.625        -135.974          42.000                                                                  
J02  38029678.691   199847306.076        -271.158          33.000                                                                  
E33  24691301.999   129753660.477         280.944          40.000                                                                  
E21  28585993.049                        1798.965          23.000    28585821.998   115103256.409        1378.981          27.000  
J04                                                                  40274324.928   164916629.764         107.987          37.000  
> 2025 10 27 01 25 04.0030000  0 32                     
S37  37349261.816   196271696.118        -274.095          43.000  
G12  24552417.304   129023816.927        1883.115          41.000    24552417.699   100538003.960        1467.731          30.000  
G23  21612136.866   113572545.460        1312.439          45.000    21612131.598    88498069.466        1022.437          40.000  
S28  38172242.586   200596489.247        -272.162          47.000  
G18  21640848.109   113723424.975       -1688.513          45.000    21640843.170    88615635.896       -1315.436          42.000  
G24  21498818.486   112977053.308       -2255.505          46.000    21498815.187    88034053.379       -1756.749          38.000  
C25  23787683.745   123868715.328        -988.458          41.000                                                                  
C06  37226114.448   193846147.160         446.519          44.000    37226102.393   149894088.867         345.098          44.000  
C08  37710880.723   196370450.248         581.387          40.000    37710868.269   151846040.437         449.666          43.000  
C09  38455043.300   200245503.267         550.942          40.000    38455036.145   154842500.997         426.022          37.000  
C23  23704602.622   123436088.032        1695.211          46.000                                                                  
C13  37949780.057   197614462.668         606.020          42.000    37949776.513   152808021.394         466.938          32.000  
R07  23058959.202   123436412.4872        720.217          31.000                                                                  
R22  22680515.627   121070133.934        1216.809          33.000    22680519.013    94165673.133         947.010          26.000  
R09  21918190.057   117041909.581        2926.682          47.000    21918188.315    91032590.678        2276.100          37.000  
R16  21848830.081   116712531.550        -375.793          41.000    21848819.556    90776386.548        -291.677          30.000  
R21  21690640.513   116070999.099       -2904.633          47.000    21690637.860    90277432.486       -2259.161          36.000  
R20  24138959.792   129081860.483       -4427.297          34.000    24138958.584   100397002.525       -3443.202          30.000  
S29  37753809.498   198397610.335        -274.490          42.000  
G32  24519266.617                        1000.467          25.000                                                                  
J07  37349265.946   196271715.382        -273.969          39.000    37349262.412   152938985.719        -213.109          39.000  
E26  25019209.200   131476817.879       -2313.047          43.000    25019209.542   100741988.459       -1772.757          45.000  
G10  24549975.124   129011002.650        2499.672          27.000                                                                  
C16  37531821.276   195438043.012         263.765          44.000    37531815.043   151125067.983         203.504          42.000  
R06  22172194.514   118315081.557        -312.569          33.000                                                                  
E29  25050701.638   131642323.019       -1023.842          45.000    25050702.674   100868799.199        -785.027          40.000  
E19  25450415.504   133742841.021         356.005          37.000    25450418.746   102478290.073         272.971          39.000  
J03  36833617.290   193561963.629        -137.994          44.000                                                                  
J02  38029730.459   199847577.243        -271.688          33.000                                                                  
E33  24691248.823   129753379.885         279.021          45.000                                                                  
E21  28585654.202                        1797.109          24.000    28585479.857   115101877.735        1378.384          26.000  
J04                                                                  40274298.323   164916521.248         108.032          41.000  
> 2025 10 27 01 25 05.0030000  0 32                     
S37  37349313.956   196271970.440        -271.838          41.000  
G12  24552059.004   129021934.313        1882.975          36.000    24552059.147                        1470.951          24.000  
G23  21611887.039   113571232.205        1313.403          45.000    21611881.607    88497046.198        1023.108          35.000  
S28  38172294.351   200596761.034        -269.942          42.000  
G18  21641169.298   113725113.170       -1686.200          38.000    21641164.511    88616951.418       -1314.441          40.000  
G24  21499247.385   112979307.997       -2255.289          47.000    21499244.236    88035810.402       -1757.119          37.000  
C25  23787873.322   123869703.055        -988.003          41.000                                                                  
C06  37226028.586   193845700.700         448.627          39.000    37226016.558   149893743.569         349.156          38.000  
C08  37710768.735   196369867.784         582.558          42.000    37710756.487   151845590.308         449.970          39.000  
C09  38454937.583   200244952.306         553.183          39.000    38454930.275   154842075.086         427.869          44.000  
C23  23704276.834   123434393.311        1696.069          44.000                                                                  
C13  37949663.503   197613855.730         607.366          41.000    37949659.821   152807552.356         469.715          38.000  
R07  23058824.958                         719.038          24.000                                                                  
R22  22680287.619   121068916.209        1217.581          36.000    22680289.311    94164725.984         948.821          26.000  
R09  21917641.822   117038983.205        2928.901          43.000    21917640.098    91030314.584        2278.557          36.000  
R16  21848900.466   116712907.427        -376.965          43.000    21848890.164    90776679.022        -293.585          34.000  
R21  21691183.336   116073903.694       -2903.076          47.000    21691180.675    90279691.623       -2257.880          36.000  
R20  24139787.277   129086285.965       -4425.995          29.000    24139786.380   100400445.235       -3441.279          33.000  
S29  37753861.785   198397884.829        -270.815          38.000  
G32  24519086.682   128848670.1223       1002.538          30.000                                                                  
J07  37349318.147   196271989.720        -272.026          37.000    37349314.462   152939199.505        -212.352          41.000  
E26  25019648.893   131479130.945       -2309.365          40.000    25019649.243   100743760.818       -1770.056          41.000  
G10  24549508.249   129008501.321        2501.824          31.000                                                                  
C16  37531770.697   195437779.344         265.116          42.000    37531764.314   151124864.023         205.500          42.000  
R06  22172253.322   118315392.0653       -312.311          30.000                                                                  
E29  25050896.561   131643345.413       -1021.766          42.000    25050896.811   100869582.681        -781.018          41.000  
E19  25450348.281   133742483.769         359.077          37.000    25450350.397   102478016.261         274.112          41.000  
J03  36833643.553   193562101.409        -134.778          39.000                                                                  
J02  38029782.474   199847850.322        -270.583          34.000                                                                  
E33  24691195.456   129753100.134         281.010          41.000    24691195.191    99421211.303         215.080          39.000  
E21  28585125.440                        1804.661          24.000                                                                  
J04                                                                  40274271.856   164916413.119         108.201          38.000  
> 2025 10 27 01 25 06.0030000  0 32                     
S37  37349366.237   196272245.370        -268.215          33.000  
G12  24551701.963                1       1888.372          28.000    24551704.515   100535125.1971       1466.669          30.000  
G23  21611637.702   113569921.621        1315.686          44.000    21611632.211    88496025.181        1024.792          40.000  
S28  38172346.205   200597032.912        -269.313          39.000  
G18  21641490.875   113726802.526       -1685.553          42.000    21641486.015    88618267.686       -1310.651          35.000  
G24  21499676.921   112981565.494       -2251.620          44.000    21499673.773    88037569.579       -1756.349          36.000  
C25  23788063.538   123870688.9993       -987.904          28.000                                                                  
C06  37225940.356   193845239.2663        450.856          36.000    37225930.966   149893398.952         347.693          37.000  
C08  37710657.253   196369287.884         585.755          42.000    37710645.026   151845141.703         452.682          43.000  
C09  38454831.986   200244401.267         553.416          41.000    38454824.523   154841648.875         428.112          35.000  
C23  23703953.624   123432706.2713       1697.670          39.000                                                                  
C13  37949547.526   197613251.230         610.102          40.000    37949543.783   152807084.938         472.013          39.000  
R07  23058688.756   123434966.0873        723.456          24.000                                                                  
R22  22680062.475   121067713.6023       1214.989          28.000    22680061.028    94163780.729         947.400          27.000  
R09  21917098.016   117036080.3803       2929.708          38.000    21917091.283    91028034.5703       2273.121          29.000  
R16  21848971.545   116713286.647        -377.301          34.000    21848961.282    90776973.988        -291.150          23.000  
R21  21691726.143                1      -2903.857          40.000    21691723.494    90281951.180       -2257.153          34.000  
R20  24140614.636   129090714.6013      -4429.029          32.000    24140612.912                1      -3443.709          28.000  
S29  37753914.090   198398159.647        -272.287          39.000  
G32  24518900.052   128847689.0562       1002.373          35.000    24518896.085                         783.863          21.000  
J07  37349372.814                1       -271.631          31.000    37349366.777   152939413.917        -210.490          33.000  
G25  24592727.405                        2599.371          22.000                                                                  
E26  25020089.799   131481444.538       -2309.309          38.000    25020089.672   100745533.735       -1770.574          41.000  
G10  24549029.760                        2502.866          26.000                                                                  
C16  37531720.201   195437516.377         268.065          40.000    37531713.952   151124660.834         206.640          41.000  
R06  22172307.566   118315706.1622       -310.870          36.000                                                                  
E29  25051091.918   131644370.231       -1020.280          43.000    25051092.069   100870368.158        -781.843          43.000  
E19  25450281.217   133742127.677         358.599          41.000    25450282.961   102477743.518         275.237          39.000  
J03  36833669.792                1       -130.282          29.000                                                                  
J02  38029843.572   199848176.6723       -269.613          30.000                                                                  
E33  24691143.193   129752822.525         282.564          43.000    24691142.567    99420998.642         218.107          39.000  
J04                                                                  40274245.891   164916306.682         109.530          36.000  
> 2025 10 27 01 25 07.0030000  0 31                     
S37  37349417.564   196272515.462        -275.337          38.000  
G12  24551342.563   129018175.4163       1882.066          33.000    24551346.317                        1469.101          33.000  
G23  21611387.486   113568606.466        1308.502          45.000    21611381.866    88495000.265        1020.355          37.000  
S28  38172397.418   200597301.795        -273.393          47.000  
G18  21641811.665   113728487.998       -1690.729          44.000    21641806.742    88619581.131       -1317.627          37.000  
G24  21500105.662   112983818.245       -2259.111          45.000    21500102.161    88039323.8471      -1760.196          34.000  
C25  23788253.013   123871675.8662       -990.864          41.000                                                                  
C06  37225855.307   193844788.9872        445.253          42.000    37225844.418   149893050.628         344.078          39.000  
C08  37710544.911   196368702.652         579.214          41.000    37710532.191                         447.577          42.000  
C09  38454725.549   200243846.704         550.851          40.000    38454718.091   154841220.157         425.360          39.000  
C23  23703623.559   123431007.9872       1694.507          36.000                                                                  
C13  37949430.634   197612642.142         603.956          42.000    37949426.871   152806614.026         465.777          41.000  
R07  23058553.020   123434239.6873        717.748          37.000    23058539.350                         558.666          29.000  
R22  22679833.357   121066489.7953       1211.759          38.000    22679829.799    94162834.561         943.560          27.000  
R09  21916546.935   117033137.8322       2926.647          43.000    21916542.365                        2280.794          30.000  
R16  21849039.334   116713645.6593       -379.785          47.000    21849033.269    90777254.8483       -296.960          30.000  
R21  21692268.751   116079711.5553      -2906.903          49.000    21692265.992    90284208.933       -2261.456          34.000  
R20  24141441.812   129095137.6362      -4424.517          38.000    24141445.601   100407344.8293      -3442.517          29.000  
S29  37753965.759   198398430.735        -276.031          45.000  
G32  24518708.858   128846684.6072        996.919          38.000    24518703.870   100399993.1531        781.567          30.000  
J07  37349421.141   196272532.2093       -274.817          33.000    37349418.147   152939624.115        -214.440          36.000  
G25  24592231.720                        2596.261          21.000                                                                  
E26  25020530.176   131483754.235       -2313.982          41.000    25020529.289   100747303.415       -1773.276          41.000  
G10  24548555.462   129003529.4683       2497.291          32.000    24548570.049                        1945.597          29.000  
C16  37531668.656   195437248.634         262.996          41.000    37531662.530   151124453.762         203.405          38.000  
R06  22172366.104   118316016.464        -315.017          37.000                                                                  
E29  25051286.058   131645390.571       -1025.709          44.000    25051286.448   100871149.995        -786.372          41.000  
E19  25450213.561   133741769.547         354.711          39.000    25450215.734   102477472.1531        271.334          39.000  
J03  36833694.523   193562370.8413       -137.366          37.000                                                                  
E33  24691089.975   129752541.132         275.902          45.000    24691090.732    99420790.0441        212.069          42.000  
J04                                                                  40274218.667   164916195.518         107.216          36.000  
> 2025 10 27 01 25 08.0030000  0 33                     
S37  37349469.360   196272787.851        -272.663          41.000  
G12  24550980.132   129016290.9702       1884.082          41.000    24550984.158                        1467.418          28.000  
G23  21611137.930   113567294.790        1311.743          45.000    21611132.196    88493978.143        1022.070          41.000  
S28  38172448.996   200597572.722        -270.296          43.000  
G18  21642133.007   113730176.901       -1688.635          45.000    21642128.161    88620897.176       -1315.491          34.000  
G24  21500534.971   112986074.656       -2256.477          46.000    21500533.932    88041082.119       -1757.950          39.000  
C25  23788442.778   123872664.6402       -988.887          46.000                                                                  
C06  37225769.168   193844341.3132        448.264          43.000    37225758.427   149892704.577         346.412          39.000  
C08  37710433.062   196368120.734         582.338          42.000    37710421.862   151844241.6953        449.957          45.000  
C09  38454619.479   200243294.207         552.982          41.000    38454611.684   154840793.015         427.874          34.000  
C23  23703299.271   123429311.9322       1696.001          42.000                                                                  
C13  37949314.187   197612036.144         606.973          40.000    37949310.446   152806145.303         468.859          38.000  
R07  23058418.288   123433519.6182        720.695          34.000    23058408.416    96003805.7253        560.966          29.000  
R22  22679608.683   121065275.7582       1214.836          36.000    22679604.071    94161890.442         944.482          33.000  
R09  21915993.850   117030209.8392       2927.645          42.000    21915993.294    91023473.5693       2277.831          34.000  
R16  21849108.962   116714023.4642       -378.424          47.000    21849109.196    90777548.6972       -294.672          34.000  
R21  21692811.643   116082616.7962      -2904.724          49.000    21692808.840    90286468.638       -2259.668          38.000  
R20  24142272.595   129099581.0723      -4418.252          30.000    24142276.299                       -3441.962          27.000  
S29  37754017.857   198398704.131        -272.590          43.000  
G32  24518522.139   128845684.0392       1000.206          32.000    24518487.471   100399214.137         779.628          30.000  
J07  37349475.291   196272816.6262       -272.091          38.000    37349469.939   152939836.440        -212.389          39.000  
G25  24591734.518                        2592.937          29.000                                                                  
E26  25020969.180   131486066.176       -2311.899          42.000    25020968.767   100749074.809       -1771.028          38.000  
G10  24548077.829   129001018.9592       2499.509          32.000    24548087.551                        1933.838          30.000  
C16  37531617.658   195436983.896         265.534          42.000    37531611.657   151124249.040         204.761          36.000  
R06  22172422.406   118316329.233        -312.128          33.000                                                                  
E29  25051480.974   131646414.120       -1023.298          44.000    25051481.119   100871934.111        -784.121          42.000  
E19  25450145.820   133741413.485         357.536          37.000    25450146.303   102477199.286         274.110          25.000  
J03  36833721.155   193562506.3742       -136.023          42.000                                                                  
J02  38029971.638   199848848.8913       -269.733          42.000                                                                  
E33  24691036.993   129752263.218         278.142          42.000    24691036.976    99420577.057         213.308          42.000  
E21  28584104.532                        1807.952          24.000                                                                  
J04                                                                  40274192.108   164916086.909         108.588          37.000  
> 2025 10 27 01 25 09.0030000  0 34                     
S37  37349521.404   196273061.105        -271.456          40.000  
G12  24550628.213   129014421.5253       1883.671          33.000    24550625.724   100530707.3701       1468.154          32.000  
G23  21610888.486   113565983.796        1311.609          46.000    21610882.855    88492956.585        1021.667          42.000  
S28  38172500.524   200597843.158        -269.282          44.000  
G18  21642454.421   113731866.237       -1688.574          43.000    21642449.712    88622213.517       -1316.339          36.000  
G24  21500964.593   112988332.610       -2257.363          47.000    21500962.413    88042841.584       -1759.204          42.000  
C25  23788632.868   123873655.274        -990.432          48.000                                                                  
C06  37225682.626   193843893.4971        448.580          38.000    37225672.444   149892358.686         346.666          38.000  
C08  37710321.320   196367539.539         581.703          42.000    37710308.066   151843791.7621        449.710          44.000  
C09  38454513.468   200242741.688         554.086          38.000                                                                  
C23  23702974.363   123427617.254        1696.735          45.000                                                                  
C13  37949197.789   197611430.460         606.534          42.000    37949194.124   152805677.020         468.712          42.000  
R07  23058281.158   123432798.3001        721.493          38.000    23058273.776    96003245.3052        560.468          29.000  
R22  22679381.506   121064077.8723       1213.805          43.000    22679377.546    94160946.310         944.705          27.000  
R09  21915448.694   117027283.263        2928.501          46.000    21915445.365    91021196.8471       2278.253          36.000  
R16  21849182.469   116714403.514        -379.431          49.000    21849180.823    90777844.340        -296.088          34.000  
R21  21693354.673   116085521.967       -2904.706          49.000    21693351.583    90288728.196       -2259.192          35.000  
R20  24143102.510   129104018.2652      -4423.921          35.000                                                                  
S29  37754069.893   198398977.190        -271.873          42.000  
G32  24518336.413   128844684.8542       1000.193          40.000                                                                  
J07  37349524.268   196273089.8812       -271.858          37.000    37349521.868   152940049.352        -211.740          41.000  
G25  24591240.036                        2595.535          22.000                                                                  
E26  25021408.168   131488379.016       -2310.939          39.000    25021409.199   100750847.070       -1770.828          38.000  
G10  24547598.977   128998518.9542       2499.292          33.000    24547603.971   100518334.2941       1947.178          30.000  
C16  37531566.888   195436719.623         266.169          41.000    37531560.872   151124044.758         204.820          33.000  
R06  22172483.176   118316642.577        -313.508          35.000                                                                  
R15  24999812.295                       -3279.495          24.000                                                                  
E29  25051676.043   131647437.980       -1023.458          44.000    25051676.191   100872718.676        -783.811          43.000  
E19  25450077.696   133741056.578         356.830          36.000    25450079.228   102476922.9091        273.181          31.000  
J03  36833745.483   193562642.9092       -134.973          42.000                                                                  
J02  38030023.073   199849121.0892       -274.692          35.000                                                                  
E33  24690984.546   129751985.615         277.903          44.000    24690983.947    99420364.324         213.464          43.000  
E21  28583766.514                        1800.846          31.000                                                                  
J04                                                                  40274165.673   164915979.033         108.424          39.000  
> 2025 10 27 01 25 10.0030000  0 33                     
S37  37349573.136   196273332.648        -271.753          37.000  
G12  24550265.435                        1886.115          31.000    24550266.827   100529238.5551       1470.807          32.000  
G23  21610639.339   113564674.197        1309.564          45.000    21610633.735    88491936.201        1021.814          39.000  
S28  38172551.836   200598112.621        -269.893          42.000  
G18  21642775.831   113733555.124       -1689.093          41.000    21642771.066    88623529.617       -1316.034          39.000  
G24  21501394.595   112990591.714       -2259.001          43.000    21501390.971    88044601.923       -1760.550          35.000  
C25  23788823.143   123874646.283        -991.661          38.000                                                                  
C06  37225596.222   193843444.972         448.241          39.000    37225586.255   149892011.864         346.824          42.000  
C08  37710209.936   196366959.254         579.962          42.000    37710197.259   151843343.136         448.491          41.000  
C09  38454406.922   200242187.450         555.209          41.000    38454398.114   154839926.1693        428.112          44.000  
C23  23702648.373   123425920.701        1696.450          45.000                                                                  
C13  37949081.808   197610826.068         604.166          44.000    37949077.980   152805209.623         467.590          41.000  
R07  23058147.239   123432079.465         718.453          37.000    23058139.536    96002685.8962        559.659          29.000  
R22  22679154.139   121062866.2522       1211.661          43.000    22679149.265    94160003.794         940.320          33.000  
R09  21914899.803   117024354.374        2929.911          43.000    21914895.500    91018918.762        2280.403          31.000  
R16  21849254.185   116714784.177        -380.499          43.000    21849253.948    90778140.124        -294.037          24.000  
R21  21693897.461   116088426.389       -2904.688          45.000    21693894.254    90290987.162       -2259.283          41.000  
R20  24143927.558                       -4416.797          31.000    24143925.334   100417658.4033      -3437.397          32.000  
S29  37754121.672   198399249.254        -271.559          43.000  
G32  24518123.965                         999.072          31.000    24518109.115   100397557.3421        778.738          33.000  
J07  37349575.946   196273361.4282       -271.343          34.000    37349573.434   152940261.011        -210.642          37.000  
G25  24590749.101                        2609.723          24.000                                                                  
E26  25021848.558   131490690.146       -2310.865          39.000    25021847.958   100752617.973       -1770.700          43.000  
G10  24547124.795   128996020.6652       2496.516          38.000    24547128.356   100516387.489        1945.290          30.000  
C16  37531515.904   195436454.363         265.336          44.000    37531509.829   151123839.547         205.259          40.000  
R06  22172542.721   118316957.342        -314.396          37.000                                                                  
E29  25051870.959   131648463.120       -1025.368          46.000    25051870.837   100873504.238        -785.444          45.000  
E19  25450009.591   133740700.452         353.921          36.000    25450012.251   102476649.954         271.432          35.000  
J03  36833769.886   193562777.1052       -132.855          44.000                                                                  
J02  38030057.926   199849302.9313       -268.838          36.000                                                                  
E33  24690931.250   129751708.882         275.528          44.000    24690930.640    99420152.440         211.374          42.000  
E21  28583401.167                        1795.039          23.000                                                                  
J04                                                                  40274139.352   164915871.237         108.566          36.000  
> 2025 10 27 01 25 11.0030000  0 33                     
S37  37349624.820   196273604.638        -273.880          42.000  
G12  24549902.927   129010630.6973       1880.000          35.000    24549904.941   100527769.883        1466.577          39.000  
G23  21610389.957   113563363.640        1310.529          44.000    21610384.338    88490914.876        1021.411          33.000  
S28  38172603.186   200598382.095        -268.831          42.000  
G18  21643097.320   113735244.789       -1689.453          44.000    21643092.602    88624846.129       -1316.772          43.000  
G24  21501824.316   112992850.397       -2259.227          41.000    21501821.561    88046361.969       -1762.191          31.000  
C25  23789013.363   123875637.327        -992.621          41.000                                                                  
C06  37225511.331   193842996.834         448.007          44.000    37225500.153   149891665.232         346.677          43.000  
C08  37710098.272   196366377.827         581.369          38.000    37710083.822   151842893.564         450.082          31.000  
C09  38454300.577   200241633.867         553.422          38.000    38454290.146   154839498.0382        427.754          43.000  
C23  23702322.635   123424225.323        1694.394          43.000                                                                  
C13  37948965.370   197610220.249         606.644          43.000    37948961.643   152804741.305         468.982          36.000  
R07  23058012.010   123431343.2663        722.758          38.000    23058006.013    96002125.5902        562.358          29.000  
R22  22678923.217   121061653.4331       1213.590          42.000    22678923.422    94159060.828         945.172          33.000  
R09  21914351.908   117021427.050        2925.418          46.000    21914349.175    91016642.111        2275.421          44.000  
R16  21849324.504   116715165.355        -384.668          42.000    21849324.469    90778464.4073       -299.130          30.000  
R21  21694440.390   116091331.813       -2905.621          42.000    21694437.152    90293246.820       -2258.691          39.000  
R20  24144752.559   129112841.9153      -4423.439          38.000    24144753.863   100421104.2952      -3439.898          37.000  
S29  37754173.500   198399521.338        -271.782          43.000  
G32  24517925.597   128842567.7273       1005.987          34.000    24517914.742                         780.873          23.000  
J07  37349629.078   196273633.4222       -273.694          39.000    37349625.121   152940472.865        -212.876          43.000  
G25  24590255.338                        2598.132          29.000                                                                  
E26  25022289.352   131493002.373       -2313.126          46.000    25022288.486   100754389.570       -1772.114          45.000  
G10  24546652.872   128993520.5912       2500.464          35.000    24546651.977   100514439.378        1950.188          34.000  
C16  37531464.991   195436189.381         264.229          43.000    37531458.966   151123634.656         204.805          40.000  
R06  22172601.567   118317270.689        -312.109          37.000                                                                  
E29  25052065.955   131649487.082       -1022.961          44.000    25052065.006   100874288.854        -783.697          35.000  
E19  25449942.337   133740343.523         359.138          38.000    25449942.830   102476376.467         274.816          37.000  
J03  36833797.067   193562912.3162       -136.816          45.000                                                                  
J02  38030099.698   199849522.0932       -272.259          40.000                                                                  
E33  24690878.996   129751431.790         278.249          45.000    24690878.274    99419939.988         213.151          44.000  
E21                                                                  28583054.612                        1380.492          24.000  
J04                                                                  40274112.976   164915762.800         108.511          34.000  
> 2025 10 27 01 25 12.0030000  0 33                     
S37  37349676.911   196273878.188        -272.738          39.000  
G12  24549547.935   129008748.7322       1882.889          38.000    24549548.763   100526303.804        1465.351          27.000  
G23  21610140.590   113562053.058        1311.237          42.000    21610134.942    88489893.718        1020.935          34.000  
S28  38172654.464   200598651.327        -268.991          39.000  
G18  21643419.064   113736935.256       -1691.119          38.000    21643414.316    88626163.395       -1317.108          40.000  
G24  21502254.344   112995110.068       -2258.404          44.000    21502249.531    88048122.676       -1759.867          33.000  
C25  23789203.987   123876630.059        -990.960          40.000                                                                  
C06  37225424.593   193842549.643         447.997          37.000    37225414.231   149891319.460         345.872          37.000  
C08  37709986.536   196365796.447         582.272          38.000    37709972.252   151842443.998         450.349          35.000  
C09  38454194.553   200241081.290         552.911          41.000    38454181.435   154839070.6792        427.455          42.000  
C23  23701997.872   123422532.082        1693.757          45.000                                                                  
C13  37948848.933   197609613.895         607.816          40.000    37948844.909   152804272.304         469.860          36.000  
R07  23057875.719   123430620.9792        722.860          30.000    23057871.491    96001563.6252        561.706          29.000  
R22  22678694.693   121060440.100        1213.715          43.000    22678695.154    94158117.170         944.806          29.000  
R09  21913803.358   117018502.329        2925.206          45.000    21913802.924    91014367.229        2275.319          42.000  
R16  21849397.126   116715548.324        -381.537          39.000    21849391.175    90778762.2682       -296.845          30.000  
R21  21694983.330   116094237.477       -2906.061          49.000    21694980.174    90295506.888       -2260.303          36.000  
R20  24145573.752                       -4422.769          29.000    24145578.204   100424544.3362      -3438.838          34.000  
S29  37754225.265   198399793.477        -272.646          37.000  
G32  24517713.869   128841565.2092       1001.423          36.000    24517716.226   100395948.8991        781.641          25.000  
J07  37349681.637   196273907.0032       -273.408          34.000    37349677.037   152940686.064        -213.021          35.000  
G25  24589752.110   129220019.0703       2596.356          31.000                                                                  
E26  25022729.231   131495316.089       -2313.000          40.000    25022727.960   100756162.364       -1772.376          44.000  
G10  24546177.183   128991018.8672       2501.791          35.000    24546175.272   100512489.892        1950.101          30.000  
C16  37531414.227   195435925.435         264.607          44.000    37531408.202   151123430.513         204.611          43.000  
R06  22172660.471   118317583.593        -312.734          34.000                                                                  
E29  25052260.811   131650510.478       -1022.807          43.000    25052259.866   100875072.949        -783.430          41.000  
E19  25449874.308   133739985.428         359.271          34.000    25449873.594   102476101.918         275.155          32.000  
J03  36833823.143   193563049.4582       -136.517          44.000                                                                  
J02  38030145.646   199849793.7082       -270.403          43.000                                                                  
E33  24690826.000   129751154.361         278.044          42.000    24690825.301    99419727.349         212.715          36.000  
E21                                                                  28582707.299   115090717.6021       1380.497          27.000  
J04                                                                  40274086.797   164915654.916         109.019          34.000  
> 2025 10 27 01 25 13.0030000  0 33                     
S37  37349729.168   196274153.173        -278.726          39.000  
G12  24549191.421   129006871.4593       1877.516          32.000    24549187.337   100524838.770        1461.771          37.000  
G23  21609891.501   113560743.979        1305.536          39.000    21609885.992    88488873.634        1017.773          36.000  
S28  38172705.739   200598921.169        -272.718          41.000  
G18  21643741.095   113738627.318       -1695.123          43.000    21643736.427    88627481.937       -1321.283          43.000  
G24  21502684.889   112997371.976       -2264.741          43.000    21502681.038    88049885.163       -1763.710          29.000  
C25  23789395.189   123877625.582        -999.623          38.000                                                                  
C06  37225339.327   193842103.636         443.920          38.000    37225328.551   149890974.606         341.835          44.000  
C08  37709875.168   196365216.495         576.382          34.000    37709860.360   151841995.592         445.065          34.000  
C09  38454088.534   200240529.745         549.252          37.000    38454078.401   154838644.1992        423.416          40.000  
C23  23701672.401   123420840.874        1688.455          44.000                                                                  
C13  37948732.682   197609008.702         601.714          36.000    37948728.557   152803804.318         466.502          36.000  
R07  23057740.965                         720.880          35.000    23057737.350    96001002.013         559.521          27.000  
R22  22678466.460   121059228.109        1208.070          39.000    22678469.430    94157174.549         939.500          30.000  
R09  21913256.013   117015579.623        2920.166          46.000    21913254.385    91012094.123        2269.814          39.000  
R16  21849469.417   116715934.022        -383.457          28.000    21849467.977                        -299.010          22.000  
R21  21695526.692   116097144.594       -2910.229          45.000    21695523.473    90297767.964       -2263.617          40.000  
R20  24146404.650   129121676.5433      -4426.432          33.000    24146403.622   100427985.423       -3443.005          33.000  
S29  37754277.186   198400066.387        -275.778          42.000  
G32  24517521.828                         999.902          30.000    24517524.888   100395168.013         778.068          27.000  
J07  37349733.920   196274181.4971       -280.023          35.000    37349729.400   152940900.346        -217.667          42.000  
G25  24589254.477   129217403.6703       2595.221          31.000                                                                  
E26  25023169.799   131497631.530       -2318.656          44.000    25023168.871   100757936.652       -1777.069          44.000  
G10  24545700.296   128988517.655        2498.856          30.000                                                                  
C16  37531363.844   195435662.785         259.342          41.000    37531357.617   151123227.382         200.669          38.000  
R06  22172719.437   118317897.681        -317.781          31.000                                                                  
E29  25052455.534   131651535.021       -1028.009          39.000    25052454.829   100875858.001        -787.052          40.000  
E19  25449806.369   133739627.869         354.223          38.000    25449807.169   102475828.089         270.460          38.000  
J03  36833849.582   193563187.6081       -141.345          43.000                                                                  
J02  38030197.035   199850066.8631       -276.915          37.000                                                                  
E33  24690773.779   129750878.370         273.119          45.000    24690772.845    99419509.9801        208.445          43.000  
E21  28582366.942   150201351.9141       1798.069          25.000    28582365.850   115089338.223        1376.353          29.000  
J04                                                                  40274060.950   164915548.193         105.316          34.000  
> 2025 10 27 01 25 14.0030000  0 33                     
S37  37349781.185   196274426.127        -276.754          40.000  
G12  24548834.746   129004997.1533       1876.676          28.000    24548827.369   100523343.7921       1464.338          30.000  
G23  21609642.066   113559433.140        1306.854          42.000    21609636.562    88487852.196        1018.616          42.000  
S28  38172756.700   200599188.688        -270.446          43.000  
G18  21644062.768   113740317.730       -1693.604          43.000    21644058.211    88628799.222       -1320.142          42.000  
G24  21503115.047   112999632.421       -2263.589          44.000    21503111.824    88051646.619       -1765.031          40.000  
C25  23789586.043   123878619.490        -998.091          44.000                                                                  
C06  37225253.299   193841655.626         444.606          40.000    37225242.484   149890628.156         343.304          44.000  
C08  37709763.401   196364634.507         578.463          38.000    37709748.339   151841545.489         446.882          42.000  
C09  38453982.197   200239976.097         551.227          40.000    38453973.127   154838216.0492        426.801          39.000  
C23  23701347.066   123419147.879        1689.725          39.000                                                                  
C13  37948616.153   197608401.482         602.261          40.000    37948611.864   152803334.800         465.771          40.000  
R07  23057609.014                         721.179          33.000                                                                  
R22  22678239.282   121058014.832        1208.409          39.000    22678239.973    94156210.3363        941.390          29.000  
R09  21912708.447   117012655.357        2922.805          42.000    21912707.144    91009819.564        2272.495          38.000  
R16  21849542.066   116716318.352        -388.684          44.000    21849539.560                        -303.255          30.000  
R21  21696069.571   116100049.911       -2907.715          46.000    21696066.409    90300027.645       -2262.091          41.000  
R20  24147230.849   129126096.4392      -4415.926          27.000    24147232.289   100431424.653       -3439.633          29.000  
S29  37754328.804   198400337.025        -273.733          44.000  
G32  24517331.620                         997.928          30.000    24517329.806   100394385.355         782.013          28.000  
J07  37349785.764   196274454.397        -276.262          35.000    37349781.282   152941113.007        -214.906          41.000  
G25  24588754.094   129214806.1302       2594.952          31.000                                                                  
E26  25023610.496   131499945.099       -2316.357          44.000    25023608.937   100759709.383       -1774.835          41.000  
G10  24545223.861   128986014.394        2499.865          36.000                                                                  
C16  37531312.887   195435397.935         262.390          39.000    37531306.464   151123022.625         202.984          39.000  
R06  22172778.131   118318209.776        -315.761          33.000                                                                  
E29  25052650.028   131652557.600       -1025.776          43.000    25052649.225   100876641.511        -786.535          45.000  
E19  25449737.560   133739268.302         355.749          38.000    25449739.013   102475552.529         272.339          35.000  
J03  36833876.054   193563324.310        -139.697          42.000                                                                  
J02  38030247.725   199850338.591        -273.453          39.000                                                                  
E33  24690721.107   129750600.515         274.302          42.000    24690719.474    99419297.124         209.811          44.000  
E21  28582020.372   150199529.839        1797.985          28.000    28582022.315   115087959.3261       1379.148          30.000  
J04                                                                  40274034.578   164915439.995         104.084          40.000  
> 2025 10 27 01 25 15.0030000  0 33                     
S37  37349832.333   196274694.707        -268.369          41.000  
G12  24548479.780   129003131.6852       1889.832          29.000    24548467.495                        1467.241          30.000  
G23  21609391.764   113558118.082        1314.783          44.000    21609386.540    88486827.548        1024.280          40.000  
S28  38172806.764   200599451.971        -263.399          44.000  
G18  21644383.855   113742004.497       -1687.091          44.000    21644379.386    88630113.514       -1315.759          41.000  
G24  21503544.486   113001888.998       -2256.649          44.000    21503541.331    88053405.031       -1759.273          40.000  
C25  23789776.090   123879609.838        -991.137          43.000                                                                  
C06  37225166.415   193841203.494         451.499          40.000    37225155.608   149890278.558         349.615          44.000  
C08  37709650.697   196364048.205         585.018          38.000    37709635.735   151841092.075         452.468          41.000  
C09  38453874.999   200239418.387         556.709          40.000    38453864.065   154837784.808         430.844          43.000  
C23  23701021.001   123417450.909        1695.959          42.000                                                                  
C13  37948498.571   197607789.870         611.209          38.000    37948494.370   152802861.809         472.902          40.000  
R07  23057473.442   123428460.5543        725.295          29.000                                                                  
R22  22678011.188   121056797.858        1216.371          33.000    22678014.163                         945.801          28.000  
R09  21912160.000   117009727.060        2928.468          44.000    21912158.740    91007542.055        2276.218          38.000  
R16  21849613.665   116716713.5101       -381.665          45.000    21849611.023    90779655.7083       -296.893          29.000  
R21  21696611.826   116102951.473       -2902.319          45.000    21696608.562    90302284.322       -2257.568          37.000  
R20  24148062.782                       -4426.017          30.000    24148060.162                       -3439.985          28.000  
S29  37754379.422   198400603.346        -266.712          45.000  
G32  24517134.898                        1005.316          33.000    24517136.881   100393576.7301        783.510          32.000  
J07  37349836.882   196274722.972        -268.478          38.000    37349832.391   152941322.329        -209.489          41.000  
G25  24588255.449   129212154.2963       2596.832          26.000                                                                  
E26  25024049.878   131502254.763       -2310.333          44.000    25024048.092   100761479.028       -1770.960          38.000  
G10  24544749.165                        2506.981          28.000    24544749.396                        1954.555          23.000  
C16  37531261.259   195435129.050         268.239          41.000    37531254.774   151122814.655         208.298          43.000  
R06  22172835.629   118318517.560        -308.601          33.000                                                                  
E29  25052844.370   131653575.789       -1018.510          42.000    25052842.880   100877421.682        -780.257          43.000  
E19  25449668.520   133738904.479         363.427          31.000    25449668.780   102475273.791         278.385          35.000  
J03  36833901.414   193563456.882        -132.782          45.000                                                                  
J02  38030299.454   199850606.133        -267.612          41.000                                                                  
E33  24690667.915   129750318.822         281.277          44.000    24690665.544    99419081.280         215.657          44.000  
E21  28581669.133   150197684.242        1804.410          32.000    28581679.020   115086575.009        1384.853          35.000  
J04                                                                  40274007.244   164915326.1641        111.910          39.000  
> 2025 10 27 01 25 16.0030000  0 32                     
S37  37349883.646   196274964.100        -270.117          40.000  
G12  24548124.492                        1883.864          28.000    24548116.359   100520432.1691       1468.588          33.000  
G23  21609141.618   113556803.557        1313.544          42.000    21609136.483    88485803.201        1024.872          40.000  
S28  38172856.938   200599715.689        -264.049          44.000  
G18  21644705.173   113743692.413       -1689.221          44.000    21644700.707    88631428.806       -1316.498          44.000  
G24  21503974.081   113004146.480       -2257.102          43.000    21503971.021    88055164.030       -1759.464          37.000  
C25  23789966.505   123880601.017        -992.961          43.000                                                                  
C06  37225079.778   193840752.167         449.747          39.000    37225068.912   149889929.543         348.003          44.000  
C08  37709538.135   196363462.145         584.893          38.000    37709523.296   151840638.857         454.052          40.000  
C09  38453768.052   200238861.452         556.591          39.000    38453757.891   154837354.297         429.894          39.000  
C23  23700695.312   123415755.214        1694.985          40.000                                                                  
C13  37948381.052   197607178.291         609.709          37.000    37948376.934   152802388.995         471.479          40.000  
R07  23057338.760                         727.636          25.000                                                                  
R22  22677783.597                1       1214.434          28.000    22677783.345    94154314.5163        944.540          28.000  
R09  21911611.737   117006800.071        2927.686          35.000    21911610.685    91005265.576        2275.597          35.000  
R16  21849685.626   116717096.460        -383.679          47.000    21849685.119    90779963.5253       -298.726          30.000  
R21  21697154.255   116105854.132       -2903.918          46.000    21697151.070    90304541.977       -2258.588          37.000  
R20  24148890.105                       -4418.540          31.000    24148883.830   100438281.5223      -3440.252          29.000  
S29  37754430.308   198400870.253        -267.839          42.000  
G32  24516943.946   128837409.9413       1008.064          29.000    24516947.547                         783.284          26.000  
J07  37349888.235   196274992.333        -269.102          35.000    37349883.698   152941532.249        -211.785          41.000  
G25  24587757.547   129209537.7042       2600.330          36.000                                                                  
E26  25024490.314   131504565.495       -2313.800          43.000    25024487.840   100763249.699       -1773.111          39.000  
C16  37531209.782   195434861.054         267.214          39.000    37531203.208   151122607.335         205.953          39.000  
R06  22172893.266   118318825.084        -307.235          33.000                                                                  
E29  25053038.380   131654594.204       -1018.622          43.000    25053036.815   100878202.016        -780.508          44.000  
E19  25449598.189   133738541.030         362.752          31.000    25449599.730   102474995.329         277.855          33.000  
J03  36833926.832   193563590.268        -134.302          43.000                                                                  
J02  38030350.657   199850874.477        -269.823          38.000                                                                  
E33  24690614.090   129750037.898         279.154          43.000    24690613.269    99418865.980         214.172          46.000  
E21  28581325.193   150195878.298        1803.317          35.000    28581335.073   115085191.305        1382.803          38.000  
J04                                                                  40273979.950   164915214.532         112.457          37.000  
> 2025 10 27 01 25 17.0030000  0 33                     
S37  37349934.913   196275233.568        -268.881          41.000  
G12  24547763.905   128999369.8733       1890.532          31.000    24547756.544                        1462.978          29.000  
G23  21608891.546   113555489.004        1314.453          42.000    21608886.444    88484778.943        1024.481          40.000  
S28  38172907.148   200599979.537        -262.767          46.000  
G18  21645026.622   113745381.082       -1688.513          44.000    21645022.106    88632744.624       -1315.729          38.000  
G24  21504403.666   113006404.170       -2257.837          40.000    21504400.709    88056923.379       -1760.094          35.000  
C25  23790156.947   123881592.646        -991.690          38.000                                                                  
C06  37224993.028   193840301.119         451.945          42.000    37224982.235   149889580.821         350.121          45.000  
C08  37709425.489   196362875.776         586.076          37.000    37709410.825   151840185.469         453.992          43.000  
C09  38453661.272   200238304.932         556.980          39.000    38453651.067   154836923.814         430.873          40.000  
C23  23700369.674   123414060.011        1696.836          42.000                                                                  
C13  37948263.613   197606566.478         611.868          38.000    37948259.349   152801915.787         474.598          39.000  
R07  23057203.903                         722.204          23.000                                                                  
R22  22677555.848                        1215.394          28.000    22677557.006    94153368.889         947.057          26.000  
R09  21911063.674   117003873.781        2927.458          46.000    21911062.656    91002989.475        2277.169          38.000  
R16  21849757.558   116717480.169        -383.649          41.000    21849756.094    90780257.9342       -297.864          31.000  
R21  21697696.858   116108757.599       -2903.351          45.000    21697693.586    90306800.225       -2257.818          38.000  
R20  24149717.861   129139393.5333      -4416.644          32.000    24149708.511                       -3438.590          29.000  
S29  37754481.110   198401137.352        -266.105          44.000  
G32  24516754.628                        1007.301          30.000    24516761.693                         777.161          23.000  
J07  37349939.546   196275261.851        -269.419          38.000    37349935.045   152941742.229        -208.859          39.000  
G25  24587259.204                        2598.609          32.000                                                                  
E26  25024929.802   131506876.729       -2310.541          46.000    25024927.317   100765020.588       -1770.185          39.000  
G10  24543791.492   128978494.1293       2508.298          33.000    24543793.457                        1954.057          25.000  
C16  37531158.380   195434593.188         268.421          40.000    37531151.920   151122400.345         207.126          40.000  
R06  22172950.955   118319132.483        -307.084          33.000                                                                  
E29  25053232.037   131655612.387       -1017.670          41.000    25053230.701   100878982.215        -779.948          42.000  
E19  25449526.210   133738162.6491        364.242          31.000    25449530.491   102474716.923         278.866          36.000  
J03  36833952.309   193563724.156        -131.433          46.000                                                                  
J02  38030403.215   199851143.237        -267.394          40.000                                                                  
E33  24690560.553   129749757.230         281.299          42.000    24690559.969    99418650.969         215.403          47.000  
E21  28580982.300   150194072.715        1804.991          35.000    28580991.409   115083807.730        1384.261          38.000  
J04                                                                  40273952.648   164915102.832         110.815          34.000  
> 2025 10 27 01 25 18.0030000  0 33                     
S37  37349985.858   196275501.466        -267.589          40.000  
G23  21608641.160   113554173.620        1315.631          42.000    21608636.157    88483753.836        1025.092          42.000  
S28  38172957.244   200600242.203        -262.575          44.000  
G18  21645347.908   113747069.114       -1687.842          43.000    21645343.386    88634059.945       -1315.192          39.000  
G24  21504833.224   113008661.106       -2256.119          45.000    21504830.198    88058681.978       -1757.938          34.000  
C25  23790347.190   123882583.026        -989.823          39.000                                                                  
C06  37224906.259   193839848.867         451.992          41.000    37224895.398   149889231.108         349.452          39.000  
C08  37709312.564   196362288.143         587.637          37.000    37709298.076   151839731.162         453.845          40.000  
C09  38453554.168   200237747.168         557.614          38.000    38453544.078   154836492.521         431.484          46.000  
C23  23700043.867   123412363.503        1696.344          43.000                                                                  
C13  37948145.830   197605953.486         612.781          41.000    37948141.682   152801441.815         474.268          39.000  
R07  23057072.078                         729.692          29.000                                                                  
R22  22677330.556   121053130.2153       1215.263          28.000    22677331.271                         944.556          26.000  
R09  21910515.385   117000946.121        2927.194          46.000    21910514.224    91000712.418        2276.153          40.000  
R16  21849829.299   116717862.988        -381.244          40.000    21849826.150    90780555.7702       -296.716          32.000  
R21  21698239.422   116111660.412       -2904.260          37.000    21698236.021    90309057.993       -2257.739          39.000  
R20  24150544.673   129143814.8592      -4415.046          32.000    24150534.866   100445148.3503      -3434.268          33.000  
S29  37754531.731   198401403.173        -265.723          43.000  
G32  24516566.879                        1003.907          29.000    24516576.154                         785.947          24.000  
J07  37349990.551   196275529.744        -267.479          38.000    37349986.007   152941951.024        -209.622          37.000  
G25  24586765.895   129204326.7693       2601.831          40.000                                                                  
E26  25025369.411   131509186.802       -2310.160          44.000    25025365.569   100766790.630       -1769.265          40.000  
G10  24543315.309   128975985.0712       2509.809          28.000                                                                  
C16  37531106.712   195434324.111         268.726          42.000    37531100.243   151122192.267         207.790          44.000  
R06  22173008.442   118319438.635        -307.611          35.000                                                                  
E29  25053425.331   131656629.542       -1015.650          43.000    25053424.172   100879761.578        -778.736          42.000  
E19  25449459.953   133737798.655         364.276          32.000    25449461.118   102474437.998         278.456          35.000  
J03  36833977.601   193563856.531        -132.721          45.000                                                                  
J02  38030454.052   199851409.941        -266.335          41.000                                                                  
E33  24690507.092   129749476.113         281.194          45.000    24690505.309    99418435.496         215.401          44.000  
E21  28580640.952   150192265.097        1804.854          32.000    28580647.209   115082422.664        1385.767          39.000  
G12                                                                  24547395.812                        1471.458          31.000  
J04                                                                  40273925.077   164914989.824         113.352          35.000  
> 2025 10 27 01 25 19.0030000  0 33                     
S37  37350037.028   196275770.566        -269.876          38.000  
G12  24547039.816   128995564.5482       1881.333          32.000    24547034.325                        1472.467          29.000  
G23  21608391.226   113552860.399        1312.390          43.000    21608386.317    88482730.582        1023.004          38.000  
S28  38173007.392   200600505.993        -264.929          42.000  
G18  21645669.602   113748758.819       -1690.881          40.000    21645664.942    88635376.481       -1316.882          39.000  
G24  21505263.182   113010920.574       -2260.960          42.000    21505260.212    88060442.505       -1761.571          36.000  
C25  23790537.942   123883576.126        -994.740          37.000                                                                  
C06  37224819.701   193839397.858         450.769          39.000    37224808.738   149888882.349         348.318          40.000  
C08  37709200.168   196361702.518         584.608          39.000    37709185.640   151839278.271         453.177          41.000  
C09  38453447.335   200237190.422         555.097          38.000    38453437.268   154836062.059         430.044          45.000  
C23  23699718.270   123410668.609        1693.819          46.000                                                                  
C13  37948028.609   197605342.471         610.111          39.000    37948024.424   152800969.340         471.368          39.000  
R07  23056939.299                         731.616          23.000                                                                  
R22  22677102.721                        1211.306          27.000    22677102.365                         944.149          25.000  
R09  21909967.389   116998019.898        2925.437          43.000    21909966.263    90998436.531        2274.171          43.000  
R16  21849902.476   116718256.7053       -385.248          37.000    21849901.410    90780862.1933       -302.460          34.000  
R21  21698782.212   116114564.846       -2905.249          38.000    21698778.723    90311317.032       -2259.711          35.000  
R20  24151370.873   129148232.8733      -4415.818          32.000    24151363.739   100448595.5853      -3435.236          28.000  
S29  37754582.567   198401670.175        -267.841          42.000  
G32  24516378.438                        1002.584          29.000    24516391.248                         782.440          21.000  
J07  37350041.710   196275798.858        -269.963          35.000    37350037.262   152942160.587        -209.781          40.000  
G25  24586268.648   129201725.4251       2599.335          34.000                                                                  
E26  25025808.956   131511498.299       -2311.979          41.000    25025806.414   100768561.709       -1771.288          38.000  
G10  24542836.290                        2511.851          19.000                                                                  
C16  37531055.300   195434056.503         266.987          44.000    37531048.948   151121985.355         206.430          45.000  
R06  22173066.330   118319746.960        -309.496          33.000                                                                  
E29  25053619.059   131657648.722       -1020.026          41.000    25053618.233   100880542.500        -781.191          42.000  
E19  25449391.791   133737436.116         361.948          33.000    25449392.293   102474160.111         277.641          33.000  
J03  36834003.134   193563989.970        -133.960          43.000                                                                  
J02  38030504.971   199851677.745        -267.390          41.000                                                                  
E33  24690453.821   129749196.957         278.360          39.000    24690451.144    99418221.584         213.723          38.000  
E21  28580300.282   150190458.076        1806.575          33.000    28580304.326   115081038.139        1384.891          37.000  
J04                                                                  40273897.872   164914878.252         110.448          37.000  
> 2025 10 27 01 25 20.0030000  0 33                     
S37  37350087.728   196276037.219        -268.180          40.000  
G12  24546681.012   128993679.1603       1883.388          36.000    24546677.130   100514538.7161       1468.386          33.000  
G23  21608140.842   113551544.986        1313.947          40.000    21608136.014    88481705.626        1021.332          33.000  
S28  38173056.872   200600766.523        -262.282          42.000  
G18  21645990.763   113750446.212       -1689.319          45.000    21645986.060    88636691.456       -1316.254          38.000  
G24  21505692.806   113013178.335       -2259.389          41.000    21505689.859    88062201.787       -1760.028          38.000  
C25  23790730.234   123884575.1383       -994.606          31.000                                                                  
C06  37224732.494   193838944.167         452.041          42.000    37224721.557   149888531.390         350.500          41.000  
C08  37709087.166   196361114.628         585.794          35.000    37709072.871   151838823.722         454.043          40.000  
C09  38453339.811   200236630.831         557.793          38.000    38453329.918   154835629.269         431.518          41.000  
C23  23699392.124   123408971.544        1695.456          41.000                                                                  
C13  37947910.752   197604728.970         610.951          39.000    37947906.611   152800494.925         474.191          34.000  
R07  23056804.205                         730.724          24.000                                                                  
R22  22676875.114                        1210.609          28.000    22676877.424                         942.329          22.000  
R09  21909419.033   116995091.505        2926.853          44.000    21909417.958    90996158.719        2276.907          41.000  
R16  21849975.166   116718639.7062       -377.089          31.000    21849971.344    90781152.0143       -299.734          29.000  
R21  21699324.538   116117466.583       -2902.680          45.000    21699321.024    90313573.936       -2258.545          42.000  
R20  24152195.214                       -4416.696          26.000    24152192.252                       -3430.397          28.000  
S29  37754632.872   198401933.998        -265.731          43.000  
J07  37350092.436   196276065.494        -268.107          37.000    37350087.902   152942368.366        -208.052          41.000  
G25  24585775.265   129199120.972        2599.976          35.000                                                                  
E26  25026247.943   131513807.381       -2311.232          41.000    25026246.760   100770330.991       -1770.856          45.000  
G10  24542361.594                        2509.265          33.000                                                                  
C16  37531003.365   195433786.250         268.850          39.000    37530997.018   151121776.285         207.966          40.000  
R06  22173123.738   118320052.862        -307.264          33.000                                                                  
E29  25053812.665   131658665.451       -1018.699          43.000    25053811.540   100881321.487        -780.776          39.000  
E19  25449320.355   133737070.642         363.495          29.000    25449322.856   102473880.061         278.039          27.000  
J03  36834028.037   193564120.873        -132.135          41.000    36834030.325   150829196.1391       -103.119          40.000  
J02  38030555.465   199851943.140        -267.436          40.000                                                                  
E33  24690399.995   129748915.409         279.907          47.000    24690398.616    99418005.873         213.879          43.000  
E21  28579957.776   150188691.1621       1807.455          29.000    28579959.657   115079651.377        1384.302          30.000  
G32                                                                  24516200.878                         775.335          20.000  
J04                                                                  40273870.223   164914764.955         110.151          34.000  
> 2025 10 27 01 25 21.0030000  0 33                     
S37  37350138.900   196276305.783        -270.188          39.000  
G12  24546321.014   128991794.0772       1882.984          38.000    24546320.923   100513069.674        1469.319          34.000  
G23  21607890.978   113550231.986        1310.474          37.000    21607886.147    88480682.425        1021.497          38.000  
S28  38173106.998   200601029.877        -265.859          40.000  
G18  21646312.405   113752136.700       -1693.146          37.000    21646307.820    88638008.709       -1319.098          42.000  
G24  21506122.890   113015438.351       -2262.524          41.000    21506119.948    88063962.858       -1762.194          33.000  
C25  23790920.531   123885567.8781       -992.640          38.000                                                                  
C06  37224645.927   193838492.818         450.439          33.000    37224634.854   149888182.514         347.656          41.000  
C08  37708974.633   196360528.591         585.409          40.000    37708960.359   151838370.453         452.172          41.000  
C09  38453232.855   200236073.765         555.402          39.000    38453223.029   154835198.502         429.739          42.000  
C23  23699066.413   123407276.697        1693.606          44.000                                                                  
C13  37947793.301   197604117.575         608.713          39.000    37947789.129   152800022.219         471.396          39.000  
R07  23056668.174                         727.074          22.000                                                                  
R22  22676649.232                        1208.802          26.000    22676651.201                         936.643          21.000  
R09  21908871.036   116992165.429        2925.935          44.000    21908870.005    90993883.025        2274.428          39.000  
R16  21850049.619                        -383.161          34.000    21850044.497    90781456.4232       -297.797          28.000  
R21  21699867.282   116120371.625       -2907.886          46.000    21699863.840    90315833.428       -2261.487          43.000  
R20  24153024.992                       -4420.492          27.000    24153018.516                       -3412.576          28.000  
S29  37754683.624   198402200.441        -269.023          40.000  
J07  37350143.465   196276334.031        -269.722          34.000    37350139.003   152942577.651        -210.323          40.000  
G25  24585285.292                1       2600.562          36.000                                                                  
E26  25026688.108   131516118.885       -2312.474          44.000    25026687.191   100772102.148       -1772.270          44.000  
C16  37530951.860   195433518.423         266.522          45.000    37530945.643   151121569.282         205.719          41.000  
R06  22173181.518   118320360.593        -308.843          34.000                                                                  
E29  25054006.680   131659684.350       -1020.991          41.000    25054005.417   100882102.272        -782.043          40.000  
E19  25449256.574                         357.897          29.000    25449253.927   102473602.288         275.616          27.000  
J03  36834053.409   193564253.873        -133.789          44.000    36834053.123   150829299.730        -104.736          40.000  
J02  38030606.215   199852210.107        -269.134          39.000                                                                  
E33  24690347.507   129748636.791         276.165          45.000    24690345.854    99417792.348         211.712          46.000  
E21  28579617.399   150186902.777        1808.456          29.000    28579613.000   115078257.9101       1384.161          26.000  
G32                                                                  24516009.291                         776.920          20.000  
G10                                                                  24541884.151                        1952.447          24.000  
J04                                                                  40273842.769   164914652.676         112.241          31.000  
> 2025 10 27 01 25 22.0030000  0 33                     
S37  37350190.691   196276577.694        -272.366          40.000  
G12  24545964.643   128989911.9642       1881.493          41.000    24545958.804   100511603.318        1464.488          31.000  
G23  21607641.857   113548923.114        1308.063          43.000    21607637.058    88479662.446        1019.910          38.000  
S28  38173158.023   200601297.730        -267.915          42.000  
G18  21646634.826   113753831.809       -1696.027          42.000    21646630.571    88639329.623       -1321.015          42.000  
G24  21506553.662   113017702.342       -2265.242          38.000    21506550.722    88065726.939       -1764.439          32.000  
C25  23791113.646   123886565.003        -998.344          40.000                                                                  
C06  37224551.020   193838005.1053        448.735          33.000    37224548.970   149887836.632         345.602          43.000  
C08  37708862.751   196359946.204         582.565          39.000    37708848.621   151837920.098         450.184          40.000  
C09  38453126.573   200235520.610         553.307          36.000    38453116.934   154834770.845         427.599          43.000  
C23  23698741.424   123405585.418        1691.382          45.000                                                                  
C13  37947676.671   197603510.036         608.170          41.000    37947672.398   152799552.338         469.462          34.000  
R07  23056534.853                         721.405          22.000                                                                  
R22  22676422.319                        1190.648          24.000    22676425.845                         929.225          21.000  
R09  21908323.989   116989242.941        2922.029          46.000    21908322.562    90991609.901        2272.929          43.000  
R21  21700411.012   116123281.655       -2910.803          45.000    21700407.589    90318096.757       -2263.879          42.000  
R20  24153852.345   129161502.4523      -4417.991          28.000                                                                  
S29  37754735.122   198402471.023        -270.786          42.000  
J07  37350195.239   196276605.945        -272.572          37.000    37350190.887   152942789.475        -211.710          40.000  
G25  24584786.913   129193927.0113       2599.023          38.000                                                                  
E26  25027128.813   131518434.389       -2315.761          43.000    25027126.958   100773876.460       -1774.537          43.000  
G10  24541407.923   128965968.7613       2503.672          26.000                                                                  
C16  37530901.148   195433254.412         263.621          43.000    37530894.947   151121365.120         202.848          38.000  
R06  22173240.049   118320672.357        -311.419          30.000                                                                  
E29  25054201.038   131660707.437       -1023.461          41.000    25054199.943   100882886.094        -785.869          37.000  
E19  25449189.253                         358.951          27.000    25449185.581                         273.909          25.000  
J03  36834079.450   193564390.408        -137.445          41.000    36834078.155   150829406.099        -106.244          42.000  
J02  38030657.705   199852479.895        -268.795          38.000                                                                  
E33  24690295.246   129748363.056         272.907          44.000    24690293.936    99417582.546         209.534          45.000  
E21  28579256.630   150185097.901        1803.036          29.000    28579272.127   115076874.732        1382.856          37.000  
G32                                                                  24515820.672                         768.962          19.000  
R16                                                                  21850115.492    90781751.5252       -302.954          27.000  
J04                                                                  40273816.111   164914543.178         109.675          32.000  
> 2025 10 27 01 25 23.0030000  0 33                     
S37  37350242.938   196276851.780        -275.436          41.000  
G12  24545605.681   128988031.9552       1879.177          42.000    24545601.617   100510138.282        1463.893          35.000  
G23  21607393.239   113547616.788        1305.286          42.000    21607388.395    88478644.543        1017.273          36.000  
S28  38173209.448   200601568.072        -271.628          42.000  
G18  21646958.046   113755530.018       -1699.902          42.000    21646953.874    88640652.822       -1324.518          43.000  
G24  21506985.077   113019969.132       -2267.790          43.000    21506983.732    88067502.4491      -1766.982          32.000  
C25  23791304.295   123887564.492       -1002.040          35.000                                                                  
C06  37224471.100   193837560.3252        443.296          37.000    37224463.501   149887492.615         342.915          43.000  
C08  37708751.414   196359365.992         580.344          40.000    37708737.236   151837471.477         448.617          36.000  
C09  38453020.906   200234969.988         549.109          41.000    38453011.222   154834345.069         424.639          40.000  
C23  23698417.040   123403896.718        1687.500          43.000                                                                  
C13  37947560.364   197602904.901         605.070          41.000    37947556.005   152799084.460         468.118          37.000  
R07  23056400.608                         722.626          22.000                                                                  
R22  22676199.731   121047093.8933       1201.086          32.000    22676200.487                         936.315          22.000  
R09  21907777.193   116986322.914        2918.523          47.000    21907775.727    90989338.698        2270.070          41.000  
R21  21700955.413   116126194.861       -2915.259          42.000    21700952.032    90320362.516       -2266.974          43.000  
R20  24154680.681                       -4425.590          27.000    24154673.657   100462362.0723      -3441.139          33.000  
S29  37754787.079   198402744.243        -274.466          43.000  
J07  37350247.546   196276880.044        -275.814          38.000    37350243.024   152943003.043        -214.058          38.000  
G25  24584288.212                        2593.693          26.000                                                                  
E26  25027569.287   131520752.551       -2319.874          44.000    25027567.697   100775652.659       -1777.330          42.000  
G10  24540931.323   128963464.0813       2498.218          26.000                                                                  
C16  37530851.147   195432992.868         260.216          45.000    37530844.726   151121162.912         200.878          42.000  
R06  22173298.993   118320986.593        -315.409          33.000                                                                  
E29  25054396.510   131661732.839       -1025.649          43.000    25054395.337   100883671.866        -786.018          39.000  
E19  25449127.118                         354.985          25.000    25449116.695                         281.855          23.000  
J03  36834105.724   193564529.163        -140.179          40.000    36834105.672   150829514.282        -108.759          41.000  
J02  38030709.486   199852751.831        -273.116          43.000                                                                  
E33  24690243.649   129748092.225         269.152          39.000    24690242.395    99417375.083         206.813          45.000  
E21  28578927.164                        1795.299          29.000    28578930.233   115075493.070        1380.441          37.000  
G32                                                                  24515629.993                         783.313          19.000  
R16                                                                  21850191.609                        -308.390          31.000  
J04                                                                  40273789.868   164914435.294         108.096          32.000  
> 2025 10 27 01 25 24.0030000  0 33                     
S37  37350295.675   196277128.734        -277.152          41.000  
G12  24545248.801   128986155.3802       1877.377          37.000    24545244.175   100508675.921        1462.834          40.000  
G23  21607145.309   113546313.424        1303.455          44.000    21607140.304    88477628.999        1015.759          38.000  
S28  38173261.361   200601841.025        -274.062          39.000  
G18  21647281.861   113757231.507       -1702.551          45.000    21647277.718    88641978.645       -1327.008          37.000  
G24  21507417.145   113022239.353       -2270.516          40.000    21507417.971    88069280.4031      -1771.242          28.000  
C25  23791495.482   123888567.536       -1003.368          33.000                                                                  
C06  37224391.929   193837118.3102        440.537          39.000    37224378.600   149887150.965         341.211          46.000  
C08  37708640.505   196358788.691         576.778          39.000    37708626.345   151837025.082         446.718          36.000  
C09  38452915.791   200234422.327         547.574          40.000    38452906.074   154833921.583         423.022          42.000  
C23  23698093.475   123402211.227        1685.163          44.000                                                                  
C13  37947444.673   197602302.414         601.491          41.000    37947440.283   152798618.526         465.447          39.000  
R07  23056267.914                         714.559          20.000                                                                  
R22  22675978.829                        1197.938          27.000    22675976.259                         923.794          22.000  
R09  21907230.964   116983406.320        2916.330          46.000    21907229.494    90987070.300        2268.542          41.000  
R16  21850268.320   116720211.0093       -395.313          37.000    21850262.238                        -307.344          27.000  
R21  21701500.458   116129111.437       -2917.682          45.000    21701497.048    90322631.003       -2269.434          43.000  
R20  24155503.868   129170334.4513      -4425.290          28.000    24155502.531   100465809.4293      -3443.084          29.000  
S29  37754839.579   198403020.079        -276.595          43.000  
J07  37350300.244   196277157.010        -277.609          37.000    37350295.821   152943218.949        -215.862          42.000  
G25  24583795.212   129188715.0983       2593.878          41.000                                                                  
E26  25028011.525   131523073.836       -2321.794          41.000    25028009.460   100777431.291       -1778.576          43.000  
G10  24540457.737   128960975.4462       2494.227          26.000                                                                  
C16  37530801.519   195432734.305         257.427          41.000    37530795.013   151120962.780         199.719          44.000  
R06  22173358.688   118321303.431        -316.832          33.000                                                                  
E29  25054592.268   131662761.057       -1029.413          45.000    25054590.896   100884459.642        -788.690          42.000  
E19  25449063.950                         354.375          22.000    25449049.228                         262.647          18.000  
J03  36834132.745   193564670.907        -141.260          43.000    36834133.116   150829624.738        -109.894          40.000  
J02  38030761.654   199853026.807        -274.255          38.000                                                                  
E33  24690192.492   129747824.677         265.988          37.000    24690191.790    99417170.016         203.827          40.000  
E21  28578584.422   150181474.4901       1800.397          39.000    28578587.952   115074113.714        1379.390          39.000  
G32                                                                  24515442.227                         771.642          19.000  
J04                                                                  40273764.074   164914329.586         105.763          36.000  
> 2025 10 27 01 25 25.0030000  0 33                     
S37  37350348.450   196277405.824        -277.612          40.000  
G12  24544890.968   128984277.6091       1876.431          40.000    24544887.054   100507213.117        1461.604          38.000  
G23  21606897.383   113545010.590        1301.550          43.000    21606892.440    88476613.801        1015.350          38.000  
S28  38173313.463   200602114.857        -274.027          36.000  
G18  21647605.940   113758934.242       -1703.387          45.000    21647601.695    88643305.429       -1326.825          43.000  
G24  21507849.253   113024509.906       -2271.255          40.000    21507847.921    88071049.574       -1768.104          33.000  
C25  23791690.005   123889570.269       -1002.380          40.000                                                                  
C06  37224304.309   193836676.8922        440.291          35.000    37224293.837   149886809.666         339.738          38.000  
C08  37708529.626   196358211.287         578.014          38.000    37708515.520   151836578.656         446.503          39.000  
C09  38452810.757   200233875.235         546.204          38.000    38452801.104   154833498.526         422.460          45.000  
C23  23697769.859   123400526.034        1684.406          45.000                                                                  
C13  37947329.047   197601700.071         603.376          39.000    37947324.662   152798152.713         466.313          40.000  
R07  23056135.641                         726.117          22.000                                                                  
R22  22675755.443                        1196.009          26.000    22675753.428                         930.471          23.000  
R09  21906684.922   116980489.862        2916.101          45.000    21906683.206    90984802.028        2267.843          41.000  
R16  21850342.815   116720608.3702       -396.796          43.000    21850341.438    90782690.3773       -313.123          31.000  
R21  21702045.811   116132029.275       -2918.597          43.000    21702042.248    90324900.465       -2270.068          37.000  
R20  24156330.096   129174752.9053      -4425.717          36.000    24156330.207   100469251.9962      -3440.974          28.000  
S29  37754892.246   198403296.621        -276.698          43.000  
J07  37350352.820   196277434.103        -277.517          38.000    37350348.433   152943434.805        -216.724          42.000  
G25  24583301.127   129186118.9252       2592.188          36.000                                                                  
E26  25028453.132   131525395.791       -2323.044          42.000    25028451.834   100779210.431       -1779.395          47.000  
G10  24539983.538   128958483.1782       2498.609          28.000                                                                  
C16  37530751.943   195432476.191         258.106          43.000    37530745.531   151120763.428         199.220          40.000  
R06  22173418.154   118321620.287        -314.932          30.000                                                                  
E29  25054788.014   131663789.550       -1027.526          47.000    25054786.536   100885247.761        -788.134          42.000  
E19  25448999.090                         350.242          18.000    25448984.434                         269.016          17.000  
J03  36834159.756   193564812.829        -143.298          40.000    36834159.768   150829735.341        -111.053          43.000  
J02  38030813.870   199853301.373        -276.811          38.000                                                                  
E33  24690141.467   129747558.115         266.595          37.000    24690140.615    99416965.749         204.129          36.000  
E21  28578234.122   150179673.662        1800.294          37.000    28578241.438   115072733.991        1379.501          35.000  
G32                                                                  24515255.519                         774.222          18.000  
J04                                                                  40273738.169   164914223.619         106.023          37.000  
> 2025 10 27 01 25 26.0030000  0 32                     
S37  37350401.450   196277684.471        -280.031          40.000  
G12  24544533.983   128982401.721        1876.252          42.000    24544530.937   100505751.539        1461.405          32.000  
G23  21606649.730   113543708.860        1299.084          41.000    21606644.657    88475599.395        1013.965          38.000  
S28  38173365.767   200602389.412        -275.935          38.000  
G18  21647930.345   113760638.833       -1706.091          42.000    21647926.184    88644633.661       -1328.149          42.000  
G24  21508281.652   113026782.007       -2272.392          45.000    21508279.693    88072820.098       -1770.192          33.000  
C25  23791883.351   123890574.987       -1008.404          36.000                                                                  
C06  37224220.980   193836237.1772        441.062          42.000    37224209.425   149886469.539         338.158          42.000  
C08  37708418.823   196357634.793         576.104          38.000    37708404.927   151836132.999         445.084          35.000  
C09  38452706.023   200233329.505         545.803          41.000    38452696.340   154833076.482         422.148          44.000  
C23  23697446.465   123398842.800        1683.083          44.000                                                                  
C13  37947213.468   197601098.180         601.666          42.000    37947209.112   152797687.392         465.548          36.000  
R07  23056001.624                         715.994          24.000                                                                  
R22  22675530.201                        1183.559          24.000    22675528.134                         928.366          23.000  
R09  21906139.084   116977575.711        2912.577          40.000    21906137.360    90982535.347        2266.714          42.000  
R16  21850417.153   116721008.1952       -401.672          35.000    21850414.358    90783000.9892       -311.188          31.000  
R21  21702591.378   116134948.681       -2919.440          49.000    21702587.739    90327171.045       -2269.684          43.000  
R20  24157158.213                       -4426.241          29.000                                                                  
S29  37754945.171   198403574.165        -279.239          43.000  
J07  37350405.785   196277712.706        -279.409          35.000    37350401.437   152943651.919        -217.085          41.000  
G25  24582806.919   129183525.8502       2593.885          36.000                                                                  
E26  25028895.040   131527719.588       -2326.354          39.000    25028894.338   100780990.980       -1780.510          45.000  
C16  37530702.475   195432219.551         257.838          42.000    37530696.309   151120564.978         198.139          44.000  
R06  22173477.843                        -321.826          32.000                                                                  
E29  25054983.879   131664818.796       -1030.585          45.000    25054982.429   100886036.378        -788.768          37.000  
J03  36834187.151   193564956.483        -144.806          42.000    36834186.814   150829847.191        -110.889          42.000  
J02  38030866.463   199853576.847        -274.984          40.000                                                                  
E33  24690090.911   129747292.852         263.810          37.000    24690090.055    99416762.377         204.818          36.000  
E21  28577893.666                        1799.661          27.000    28577900.996   115071355.050        1379.410          31.000  
E19                                                                  25448919.906                         257.538          16.000  
G32                                                                  24515068.418                         783.214          18.000  
J04                                                                  40273712.730                         104.503          35.000  
> 2025 10 27 01 25 27.0030000  0 32                     
S37  37350454.373   196277962.876        -279.434          39.000  
G12  24544177.048   128980526.278        1872.351          31.000    24544174.013   100504289.987        1461.844          28.000  
G23  21606401.966   113542407.577        1300.549          45.000    21606397.104    88474585.550        1012.573          38.000  
S28  38173418.037   200602664.061        -274.024          38.000  
G18  21648254.877   113762343.824       -1706.104          44.000    21648250.651    88645962.318       -1328.784          43.000  
G24  21508714.243   113029055.036       -2273.814          44.000    21508712.798    88074583.2251      -1771.273          36.000  
C25  23792075.835   123891581.6313      -1006.585          36.000                                                                  
C06  37224137.110   193835796.8711        438.201          38.000    37224124.924   149886129.506         338.064          41.000  
C08  37708308.158   196357058.622         575.560          39.000    37708294.305   151835687.310         445.375          38.000  
C09  38452601.318   200232783.717         544.606          40.000    38452591.642   154832654.542         421.260          44.000  
C23  23697123.118   123397159.739        1681.245          42.000                                                                  
C13  37947097.938   197600497.031         599.865          38.000    37947092.395   152797216.4423        464.317          38.000  
R07  23055869.396                         719.496          23.000                                                                  
R09  21905593.366   116974661.426        2913.167          47.000    21905591.644    90980268.713        2265.548          44.000  
R16  21850492.230   116721408.669        -402.435          40.000    21850491.251    90783312.1303       -313.556          31.000  
R21  21703137.081   116137868.774       -2919.971          45.000    21703133.433    90329442.274       -2271.417          40.000  
S29  37754998.045   198403851.879        -278.614          44.000  
J07  37350458.775   196277991.148        -279.238          36.000    37350454.410   152943868.847        -217.598          40.000  
G25  24582319.798   129180932.6432       2593.922          33.000                                                                  
E26  25029337.177   131530043.502       -2325.318          42.000    25029335.824   100782771.573       -1781.376          42.000  
G10  24539033.607                        2496.686          26.000                                                                  
C16  37530653.226   195431963.208         254.009          37.000    37530647.132   151120366.663         197.846          44.000  
R06  22173537.484   118322244.1563       -317.406          32.000                                                                  
E29  25055179.751   131665848.544       -1030.347          41.000    25055178.549   100886825.378        -788.801          42.000  
J03  36834214.494   193565099.982        -143.921          44.000    36834213.585   150829959.047        -112.885          39.000  
J02  38030922.030   199853843.2153       -277.006          40.000                                                                  
E33  24690041.344   129747028.228         265.417          31.000    24690039.656    99416558.0191        201.846          34.000  
E21  28577553.121                        1796.354          25.000    28577566.664                        1381.194          28.000  
E19                                                                  25448854.576                         265.032          14.000  
G32                                                                  24514879.127                         777.611          16.000  
R22                                                                  22675302.293                         929.505          23.000  
J04                                                                  40273685.832   164914010.5421        105.870          38.000  
> 2025 10 27 01 25 28.0030000  0 33                     
S37  37350507.667   196278243.147        -279.660          39.000  
G12  24543820.690   128978652.302        1871.130          32.000    24543817.738   100502830.055        1460.156          31.000  
G23  21606154.840   113541108.608        1299.823          46.000    21606150.038    88473573.288        1012.537          38.000  
S28  38173470.708   200602940.667        -274.422          36.000  
G18  21648579.997   113764051.609       -1708.765          43.000    21648575.607    88647292.987       -1330.212          45.000  
G24  21509147.259   113031330.317       -2274.617          43.000    21509145.345    88076356.248       -1772.681          33.000  
C25  23792266.627   123892589.2082      -1006.990          39.000                                                                  
C06  37224052.153   193835359.012         438.442          37.000    37224040.920   149885790.878         338.396          46.000  
C08  37708197.852   196356484.237         576.245          38.000    37708184.011   151835243.328         445.100          36.000  
C09  38452496.804   200232239.991         543.826          40.000    38452487.181   154832234.063         419.925          41.000  
C23  23696800.486   123395478.845        1680.775          44.000                                                                  
C13  37946982.872   197599897.517         600.621          36.000    37946978.161   152796753.1212        463.786          38.000  
R07  23055736.700                         716.387          22.000                                                                  
R22  22675083.431   121041134.4193       1193.849          31.000    22675078.229                         926.517          21.000  
R09  21905048.173   116971749.316        2911.625          46.000    21905046.366    90978003.765        2264.436          37.000  
R16  21850566.826   116721811.780        -402.197          39.000    21850566.180    90783625.7152       -312.445          31.000  
R21  21703683.295   116140791.247       -2923.297          45.000    21703679.633    90331715.281       -2273.468          42.000  
R20  24158823.766                       -4417.182          28.000    24158817.331                       -3444.527          29.000  
S29  37755051.251   198404131.414        -278.906          43.000  
J07  37350511.967   196278271.404        -279.525          35.000    37350507.497   152944087.206        -217.965          40.000  
G25  24581827.490   129178341.3592       2589.890          27.000                                                                  
E26  25029779.566   131532369.539       -2327.697          39.000    25029779.401   100784553.937       -1782.253          46.000  
G10  24538559.367   128950999.1353       2495.958          27.000                                                                  
C16  37530604.375   195431708.784         253.535          41.000    37530598.306   151120169.998         197.000          41.000  
R06  22173597.314   118322563.7472       -318.235          31.000                                                                  
E29  25055375.980   131666880.147       -1028.601          38.000    25055374.843   100887616.041        -789.198          40.000  
J03  36834242.262   193565245.324        -146.033          43.000    36834241.085   150830072.313        -113.745          46.000  
J02  38030976.558   199854130.6812       -279.375          35.000                                                                  
E33  24689991.944   129746766.331         261.012          31.000    24689989.229    99416357.014         201.749          34.000  
E21  28577229.928                        1800.086          24.000    28577223.220                        1378.512          27.000  
E19                                                                  25448787.981                         265.032          12.000  
G32                                                                  24514692.398                         771.110          19.000  
J04                                                                  40273660.985   164913906.881         104.520          32.000  
> 2025 10 27 01 25 29.0030000  0 31                     
S37  37350561.141   196278524.648        -280.543          35.000  
G12  24543464.645   128976780.309        1874.232          30.000    24543461.696   100501371.162        1458.536          27.000  
G23  21605907.817   113539810.238        1299.170          45.000    21605903.102    88472561.732        1012.323          36.000  
S28  38173523.784   200603218.867        -278.046          36.000  
G18  21648905.268   113765761.028       -1709.180          43.000    21648900.964    88648625.093       -1331.671          45.000  
G24  21509580.418   113033606.635       -2275.067          43.000    21509577.681    88078130.001       -1772.561          33.000  
C25  23792462.030   123893597.9232      -1007.900          41.000                                                                  
C06  37223968.053   193834922.591         437.980          40.000    37223957.075   149885453.421         337.939          45.000  
C08  37708087.712   196355910.457         575.112          38.000    37708073.920   151834799.575         444.655          40.000  
C09  38452392.727   200231697.869         542.736          40.000    38452383.193   154831814.855         419.740          43.000  
C23  23696478.176   123393799.512        1679.507          47.000                                                                  
C13  37946867.862   197599298.600         600.411          36.000    37946862.007   152796289.9062        463.455          36.000  
R09  21904503.116   116968838.914        2911.668          38.000    21904501.371    90975740.263        2263.802          41.000  
R16  21850641.677   116722216.540        -404.083          45.000    21850640.628    90783933.1153       -315.069          27.000  
R21  21704229.833   116143716.005       -2926.013          45.000    21704226.157    90333990.007       -2275.110          41.000  
R20  24159659.780   129192557.6793      -4430.859          28.000                                                                  
S29  37755104.765   198404412.303        -281.341          43.000  
G32  24514535.497                         988.472          26.000    24514505.285                         767.588          20.000  
J07  37350565.597   196278552.934        -281.306          32.000    37350560.822   152944306.560        -218.196          38.000  
G25  24581335.466   129175751.3862       2590.255          30.000                                                                  
E26  25030223.379   131534697.292       -2327.186          41.000    25030222.041   100786337.555       -1783.260          42.000  
G10  24538086.544                        2491.163          23.000                                                                  
C16  37530555.424   195431455.572         253.228          40.000    37530549.662   151119974.143         196.204          41.000  
R06  22173657.518   118322883.7132       -320.234          30.000                                                                  
E29  25055572.174   131667912.450       -1031.239          37.000    25055571.568   100888407.025        -790.670          42.000  
J03  36834270.245   193565392.208        -145.801          42.000    36834268.922   150830186.800        -113.690          40.000  
J02  38031032.969                        -282.286          26.000                                                                  
E33  24689942.976   129746505.697         261.334          25.000    24689942.604    99416157.322         200.307          35.000  
E21  28576884.071                        1795.321          25.000    28576880.308                        1366.924          25.000  
R22                                                                  22674855.630                         923.538          20.000  
J04                                                                  40273636.315   164913803.745         104.938          35.000  
> 2025 10 27 01 25 30.0030000  0 32                     
S37  37350614.375   196278805.945        -280.938          36.000  
G12  24543108.664   128974908.108        1873.774          36.000    24543105.621   100499912.320        1458.413          29.000  
G23  21605660.754   113538511.854        1299.127          46.000    21605656.007    88471549.858        1012.311          36.000  
S28  38173576.799   200603497.688        -278.689          39.000  
G18  21649230.820   113767471.481       -1709.888          43.000    21649226.347    88649957.898       -1333.087          46.000  
G24  21510013.466   113035882.897       -2275.597          42.000    21510010.691    88079903.693       -1772.705          33.000  
C25  23792655.612   123894606.5212      -1008.066          40.000                                                                  
C06  37223884.257   193834486.685         436.782          38.000    37223873.378   149885116.296         337.660          43.000  
C08  37707977.464   196355336.068         575.096          38.000    37707963.704   151834355.460         444.706          40.000  
C09  38452288.732   200231156.362         541.456          33.000    38452279.223   154831396.168         418.943          44.000  
C23  23696156.178   123392120.660        1679.441          45.000                                                                  
C13  37946752.813   197598699.194         600.073          37.000    37946746.921   152795826.4162        464.123          36.000  
R07  23055472.690                         712.497          20.000                                                                  
R09  21903958.378   116965929.431        2910.173          40.000    21903956.801    90973477.297        2263.011          38.000  
R16  21850717.578   116722621.337        -404.279          43.000    21850718.903    90784247.7512       -314.093          33.000  
R21  21704776.576   116146641.905       -2925.879          45.000    21704772.793    90336265.723       -2275.970          41.000  
R20  24160484.837   129196988.6822      -4430.303          28.000    24160487.008                       -3449.038          23.000  
S29  37755158.332   198404693.727        -281.173          43.000  
G32  24514350.018                         990.405          31.000    24514317.347                         775.148          19.000  
J07  37350618.901   196278834.242        -281.379          32.000    37350614.070   152944525.867        -219.069          37.000  
G25  24580839.385   129173181.8223       2590.096          31.000                                                                  
E26  25030667.119   131537025.672       -2328.642          44.000    25030665.487   100788121.681       -1783.908          44.000  
G10  24537617.590                        2496.130          20.000                                                                  
C16  37530506.854   195431202.820         253.067          41.000    37530501.083   151119778.664         195.658          44.000  
R06  22173717.470   118323203.0382       -318.311          29.000                                                                  
E29  25055768.421   131668944.436       -1031.146          37.000    25055767.621   100889197.756        -790.377          42.000  
J03  36834298.281   193565539.449        -146.747          44.000    36834296.926   150830301.510        -114.471          40.000  
J02  38031089.210   199854722.2983       -278.157          32.000                                                                  
E33  24689894.102                         272.551          25.000    24689891.015    99415957.879         199.836          30.000  
E21  28576543.050   150170746.8601       1797.169          30.000    28576538.522   115065879.0371       1377.071          28.000  
R22                                                                  22674634.174                         923.390          22.000  
J04                                                                  40273610.914   164913700.037         104.266          37.000  
> 2025 10 27 01 25 31.0030000  0 31                     
S37  37350668.231   196279089.018        -285.385          36.000  
G12  24542753.027   128973037.815        1867.851          36.000    24542749.875   100498454.910        1455.643          28.000  
G23  21605413.973   113537215.207        1294.324          46.000    21605409.332    88470539.533        1008.167          37.000  
S28  38173630.223   200603778.408        -282.964          40.000  
G18  21649556.818   113769184.397       -1715.179          43.000    21649552.412    88651292.636       -1336.432          46.000  
G24  21510447.087   113038161.179       -2280.989          41.000    21510442.161    88081679.030       -1777.882          28.000  
C25  23792848.155   123895616.9842      -1012.832          44.000                                                                  
C06  37223800.803   193834052.646         432.035          36.000    37223790.087   149884780.681         334.094          43.000  
C08  37707867.530   196354763.098         570.678          37.000    37707853.688   151833912.429         441.497          40.000  
C09  38452185.179   200230616.987         537.264          36.000    38452175.788   154830979.069         415.308          43.000  
C23  23695834.120   123390443.772        1674.874          40.000                                                                  
C13  37946637.951   197598101.243         595.764          36.000    37946631.632   152795364.0412        460.741          37.000  
R07  23055338.177                         709.546          21.000                                                                  
R22  22674418.458                        1186.886          21.000    22674412.151                         922.795          22.000  
R09  21903413.931   116963021.955        2904.442          43.000    21903412.479    90971215.970        2258.834          35.000  
R16  21850793.493   116723028.455        -409.717          42.000    21850799.025    90784591.4073       -318.909          34.000  
R21  21705324.056   116149570.458       -2931.250          46.000    21705320.040    90338543.533       -2279.504          42.000  
R20  24161312.288   129201394.8743      -4434.548          28.000                                                                  
S29  37755212.245   198404977.058        -285.428          42.000  
G32  24514165.095   128822806.0653        985.984          34.000    24514130.438                         770.037          18.000  
J07  37350672.617   196279117.303        -286.086          33.000    37350667.604   152944746.406        -222.246          31.000  
G25  24580347.833   129170593.6481       2585.876          36.000                                                                  
E26  25031111.205   131539356.249       -2332.571          43.000    25031108.444   100789907.405       -1787.242          42.000  
C16  37530458.688   195430951.872         248.702          40.000    37530452.927   151119584.624         192.388          44.000  
R06  22173777.914   118323523.911        -322.875          28.000                                                                  
E29  25055965.417   131669978.007       -1035.565          41.000    25055965.091   100889989.695        -793.542          42.000  
J03  36834326.598   193565688.475        -150.739          41.000    36834325.212   150830417.652        -117.737          38.000  
J02  38031142.261   199855000.5903       -285.459          28.000                                                                  
E33  24689855.079                         255.061          24.000    24689842.459    99415760.222         196.062          29.000  
E21  28576204.318                        1793.936          22.000    28576196.423   115064503.983        1373.556          30.000  
J04                                                                  40273585.126   164913597.303         101.132          37.000  
> 2025 10 27 01 25 32.0030000  0 32                     
S37  37350722.366   196279373.201        -284.548          38.000  
G12  24542397.829   128971168.808        1867.873          33.000    24542394.495   100496998.676        1455.590          28.000  
G23  21605167.579   113535919.943        1294.843          46.000    21605162.923    88469530.215        1008.948          39.000  
S28  38173683.844   200604060.241        -282.494          37.000  
G18  21649883.184   113770899.073       -1715.680          44.000    21649878.687    88652628.818       -1337.054          43.000  
G24  21510880.968   113040441.012       -2280.835          43.000    21510875.490    88083455.546       -1777.246          27.000  
C25  23793042.858   123896629.2112      -1013.381          42.000                                                                  
C06  37223717.430   193833619.919         432.323          38.000    37223707.035   149884446.106         334.108          46.000  
C08  37707757.695   196354191.319         571.511          39.000    37707743.853   151833470.263         442.065          37.000  
C09  38452081.851   200230078.882         537.406          40.000    38452072.581   154830562.964         415.708          45.000  
C23  23695512.083   123388768.538        1673.741          40.000                                                                  
C13  37946523.196   197597504.334         596.260          33.000    37946518.511   152794902.4552        461.666          36.000  
R07  23055206.086                         708.947          20.000                                                                  
R22  22674204.033   121036440.7203       1184.406          30.000    22674189.128                         927.036          20.000  
R09  21902869.926   116960116.081        2905.059          44.000    21902868.371    90968955.855        2259.522          37.000  
R16  21850870.062   116723437.682        -410.321          44.000    21850875.404    90784909.6082       -319.434          35.000  
R21  21705871.506   116152500.717       -2931.049          46.000    21705867.580    90340822.657       -2279.626          42.000  
R20  24162143.813   129205829.3782      -4433.881          28.000                                                                  
S29  37755266.334   198405261.508        -285.273          42.000  
G32  24513978.343   128821819.0902        986.740          28.000    24513946.433                         761.015          19.000  
J07  37350726.740   196279401.488        -284.720          36.000    37350721.444   152944967.833        -222.030          37.000  
G25  24579855.997   129168007.152        2585.307          33.000                                                                  
E26  25031555.124   131541688.297       -2333.156          42.000    25031551.785   100791694.346       -1787.884          43.000  
G10  24536673.280                        2495.470          22.000                                                                  
C16  37530410.675   195430702.023         248.699          40.000    37530404.948   151119391.523         192.410          40.000  
R06  22173838.204   118323845.859        -321.651          29.000                                                                  
E29  25056162.629   131671012.717       -1034.977          42.000    25056162.276   100890782.518        -793.211          41.000  
J03  36834355.162   193565838.943        -151.471          42.000    36834353.535   150830534.914        -118.060          39.000  
J02  38031191.360   199855258.5332       -281.707          36.000                                                                  
E33  24689814.207                         258.738          25.000    24689791.964    99415563.770         195.358          29.000  
E21  28575863.393                        1795.685          20.000    28575853.691   115063129.654        1374.549          29.000  
J04                                                                  40273560.941   164913495.503         101.831          34.000  
> 2025 10 27 01 25 33.0030000  0 33                     
S37  37350776.814   196279658.929        -284.652          38.000  
G12  24542042.511   128969300.053        1869.505          33.000    24542039.697                        1455.759          26.000  
G23  21604921.318   113534625.644        1294.159          45.000    21604916.615    88468521.647        1008.252          36.000  
S28  38173737.601   200604342.515        -281.495          36.000  
G18  21650209.814   113772615.209       -1715.564          45.000    21650205.313    88653965.921       -1336.713          45.000  
G24  21511315.026   113042722.517       -2283.042          42.000    21511309.492    88085233.279       -1778.249          32.000  
C25  23793238.332   123897642.7841      -1014.482          42.000                                                                  
C06  37223634.703   193833188.234         432.428          43.000    37223624.220   149884112.254         334.534          45.000  
C08  37707647.991   196353620.381         571.154          39.000    37707634.207   151833028.688         441.949          39.000  
C09  38451978.660   200229541.904         537.967          42.000    38451969.505   154830147.759         416.390          45.000  
C23  23695190.763   123387094.996        1673.570          41.000                                                                  
C13  37946408.786   197596908.295         595.910          33.000    37946403.652   152794441.354         461.192          38.000  
R07  23055073.243                         711.989          20.000                                                                  
R22  22673987.792                        1184.128          25.000    22673968.686                         929.926          19.000  
R09  21902326.126   116957211.237        2901.639          31.000    21902324.614    90966696.337        2259.556          38.000  
R16  21850947.219   116723849.179        -412.177          38.000    21850952.062    90785229.807        -320.270          34.000  
R21  21706419.168   116155432.291       -2930.621          45.000    21706415.411    90343102.668       -2279.559          37.000  
R20  24162968.269   129210263.2381      -4433.615          28.000                                                                  
S29  37755320.726   198405546.702        -284.200          42.000  
G32  24513789.974   128820833.1042        985.894          28.000    24513761.280                         770.532          21.000  
J07  37350780.999   196279687.220        -284.757          34.000    37350775.770   152945190.487        -221.826          36.000  
G25  24579364.363   129165421.979        2587.185          32.000                                                                  
E26  25031998.688   131544021.971       -2332.840          42.000    25031997.104   100793482.421       -1787.631          45.000  
G10  24536203.491                        2497.343          22.000                                                                  
C16  37530362.721   195430453.599         248.844          38.000    37530357.218   151119199.375         192.137          39.000  
R06  22173898.635   118324168.328        -322.879          29.000                                                                  
E29  25056359.630   131672048.083       -1035.635          39.000    25056359.178   100891575.913        -793.468          42.000  
E19  25448495.341                         343.395          18.000                                                                  
J03  36834384.157   193565990.923        -150.861          44.000    36834382.509   150830653.246        -118.231          38.000  
J02  38031242.568   199855540.2142       -282.944          35.000                                                                  
E33  24689771.905                         253.864          23.000    24689745.365    99415368.137         195.448          29.000  
E21  28575509.535                        1787.547          21.000    28575511.889                        1366.112          21.000  
J04                                                                  40273537.203   164913394.500          99.863          30.000  
> 2025 10 27 01 25 34.0030000  0 33                     
S37  37350830.651   196279941.743        -283.085          33.000  
G23  21604674.802   113533329.865        1296.149          44.000    21604670.023    88467512.005        1010.034          36.000  
S28  38173790.664   200604621.297        -279.186          32.000  
G18  21650535.849   113774328.831       -1715.076          38.000    21650531.399    88655301.182       -1335.706          37.000  
G24  21511749.000   113045002.974       -2279.231          41.000    21511743.465    88087010.236       -1776.716          38.000  
C25  23793432.740   123898655.721       -1012.727          42.000                                                                  
C06  37223551.177   193832753.787         434.458          39.000    37223540.723   149883776.390         338.088          41.000  
C08  37707537.867   196353047.851         573.052          41.000    37707524.327   151832585.960         442.688          41.000  
C09  38451874.706   200229001.481         541.414          36.000    38451865.676   154829729.791         418.563          42.000  
C23  23694868.685   123385419.032        1676.964          42.000                                                                  
C13  37946293.857   197596310.453         595.864          32.000    37946288.755   152793979.024         462.803          33.000  
R07  23054936.722                         723.579          18.000                                                                  
R22  22673764.248                        1181.151          24.000    22673745.423                         930.412          17.000  
R09  21901781.688   116954304.740        2906.322          37.000    21901780.390    90964435.515        2260.402          35.000  
R16  21851024.193   116724259.705        -411.243          44.000    21851028.730    90785549.260        -321.683          31.000  
R21  21706966.336   116158360.749       -2928.815          49.000    21706962.580    90345380.402       -2277.271          38.000  
R20  24163793.971   129214665.3483      -4428.966          35.000    24163804.120                       -3445.564          24.000  
S29  37755374.377   198405828.570        -282.394          40.000  
G32  24513603.774                         988.911          26.000    24513574.276                         766.308          20.000  
J07  37350834.945   196279970.048        -283.427          33.000    37350829.801   152945410.824        -219.462          38.000  
G25  24578871.866   129162832.891        2590.302          31.000                                                                  
E26  25032442.113   131546352.751       -2331.499          42.000    25032440.450   100795267.838       -1781.764          31.000  
G10  24535728.290                        2491.900          22.000                                                                  
C16  37530314.554   195430202.630         249.579          39.000    37530308.883   151119005.013         194.825          39.000  
R06  22173958.872   118324489.566        -320.874          32.000                                                                  
E29  25056556.718   131673081.966       -1034.998          35.000    25056555.528   100892367.986        -791.836          39.000  
E19  25448428.543                         350.923          17.000                                                                  
J03  36834412.495   193566139.791        -147.864          43.000    36834410.685   150830769.355        -115.668          40.000  
J02  38031296.479                        -278.815          30.000                                                                  
E33  24689721.381                         251.914          22.000    24689694.722                         195.676          27.000  
E21  28575170.996   150163536.1741       1794.293          29.000    28575173.536                        1388.546          21.000  
G12                                                                  24541685.878                        1457.031          26.000  
J04                                                                  40273512.054   164913291.874         102.809          39.000  
> 2025 10 27 01 25 35.0030000  0 32                     
S37  37350884.371   196280225.242        -281.665          37.000  
G12  24541339.876   128965611.0673       1870.172          33.000    24541332.902   100492654.9771       1458.285          30.000  
G23  21604428.435   113532035.399        1294.373          40.000    21604423.781    88466503.369        1009.088          40.000  
S28  38173843.721   200604900.999        -278.186          35.000  
G18  21650862.126   113776043.698       -1714.124          41.000    21650857.856    88656637.389       -1336.316          42.000  
G24  21512183.263   113047285.115       -2281.859          42.000    21512177.842    88088788.452       -1777.465          35.000  
C25  23793627.516   123899670.353       -1012.972          39.000                                                                  
C06  37223467.952   193832320.057         434.066          41.000    37223457.362   149883440.893         336.323          38.000  
C08  37707428.054   196352476.369         572.375          40.000    37707414.624   151832144.041         441.896          37.000  
C09  38451770.995   200228461.731         540.143          38.000    38451762.033   154829312.501         418.397          43.000  
C23  23694546.928   123383743.955        1676.094          45.000                                                                  
C13  37946179.057                1        597.238          27.000    37946174.139   152793517.615         461.362          33.000  
R07  23054801.903                         711.917          18.000                                                                  
R22  22673540.100                        1182.863          24.000    22673524.202                         924.375          18.000  
R09  21901237.575   116951399.1372       2906.613          41.000    21901236.192    90962175.566        2260.395          37.000  
R16  21851101.401   116724672.389        -412.476          38.000    21851105.791    90785866.0863       -321.759          30.000  
R21  21707513.703   116161290.323       -2929.669          47.000    21707510.046    90347658.982       -2278.168          40.000  
R20  24164620.097                       -4433.469          25.000                                                                  
S29  37755428.242   198406111.087        -281.794          44.000  
J07  37350888.721   196280253.534        -282.654          35.000    37350884.013   152945631.734        -220.237          40.000  
G25  24578379.818   129160244.839        2588.204          38.000                                                                  
E26  25032886.677   131548684.447       -2330.921          45.000    25032883.531   100797053.961       -1786.459          43.000  
G10  24535250.655                        2487.439          21.000                                                                  
C16  37530266.576   195429952.154         249.647          37.000    37530260.517   151118811.567         194.050          40.000  
R06  22174019.359   118324815.9853       -322.585          33.000                                                                  
E29  25056753.554   131674116.652       -1034.300          35.000    25056752.431   100893160.779        -791.978          40.000  
J03  36834440.943   193566289.411        -148.737          42.000    36834439.159   150830885.926        -115.735          38.000  
J02  38031350.319   199856094.5973       -279.456          39.000                                                                  
E33  24689671.600                         259.073          20.000    24689647.648                         195.096          26.000  
E21  28574836.941                        1795.123          24.000    28574825.246                        1377.115          24.000  
G32                                                                  24513388.952                         762.332          19.000  
J04                                                                  40273487.194   164913190.037         102.561          34.000  
> 2025 10 27 01 25 36.0030000  0 32                     
S37  37350938.147   196280509.866        -286.098          39.000  
G12  24540983.183   128963742.7172       1868.417          35.000    24540981.918                        1457.081          24.000  
G23  21604182.543   113530743.063        1289.303          30.000    21604177.842    88465496.395        1006.390          34.000  
S28  38173897.006   200605181.474        -280.055          34.000  
G18  21651188.737   113777760.136       -1716.193          43.000    21651184.557    88657974.894       -1338.709          41.000  
G24  21512617.899   113049569.354       -2285.737          39.000    21512612.617    88090568.309       -1780.969          34.000  
C25  23793822.701   123900686.738       -1018.863          39.000                                                                  
C06  37223384.768   193831887.365         431.624          38.000    37223374.264   149883106.472         335.764          41.000  
C08  37707318.661   196351906.641         566.815          36.000    37707305.319   151831703.551         438.256          40.000  
C09  38451667.481   200227922.824         538.630          40.000    38451658.597   154828895.720         417.096          46.000  
C23  23694225.751   123382070.222        1672.638          40.000                                                                  
C13  37946065.148   197595118.3073        593.971          37.000    37946059.919   152793057.427         458.428          34.000  
R07  23054668.429                         712.756          19.000                                                                  
R22  22673312.948                        1188.910          23.000    22673303.938                         927.426          17.000  
R09  21900694.481                        2900.116          30.000    21900692.449    90959916.613        2257.912          38.000  
R16  21851179.097   116725086.919        -416.449          45.000    21851183.339    90786188.7532       -328.288          30.000  
R21  21708061.448   116164221.415       -2932.703          47.000    21708057.711    90349938.680       -2279.919          40.000  
R20  24165447.718                       -4430.383          30.000    24165461.216                       -3447.179          30.000  
S29  37755482.191   198406394.423        -282.213          42.000  
J07  37350942.729   196280538.142        -285.931          35.000    37350938.320   152945853.479        -222.980          38.000  
G25  24577887.541                1       2589.105          26.000                                                                  
E26  25033330.674   131551017.307       -2333.810          44.000    25033327.232   100798841.396       -1787.875          43.000  
G10  24534773.964                        2491.285          23.000                                                                  
C16  37530218.815   195429703.084         247.279          43.000    37530212.603   151118618.805         193.752          42.000  
R06  22174080.019   118325140.0042       -324.458          29.000                                                                  
E29  25056950.711   131675153.481       -1037.572          38.000    25056949.915   100893955.189        -797.682          37.000  
J03  36834469.632   193566439.883        -153.632          38.000    36834467.638   150831003.093        -117.365          36.000  
J02  38031404.916   199856376.4372       -284.705          34.000                                                                  
E33  24689622.331                         253.673          20.000    24689600.211                         192.486          23.000  
E21  28574490.618                        1796.866          22.000    28574487.761   115057621.2831       1374.487          27.000  
G32                                                                  24513201.245                         766.765          18.000  
J04                                                                  40273462.678   164913089.407          98.793          30.000  
> 2025 10 27 01 25 37.0030000  0 31                     
S37  37350992.242   196280793.806        -286.113          37.000  
G12  24540628.006   128961874.9152       1864.732          33.000    24540626.798                        1455.671          25.000  
S28  38173950.312   200605461.620        -281.993          35.000  
G18  21651515.395   113779476.933       -1723.993          34.000    21651511.365    88659312.638       -1339.240          44.000  
G24  21513052.442   113051853.637       -2287.207          41.000    21513047.426    88092348.327       -1781.025          35.000  
C25  23794017.859   123901703.077       -1017.722          38.000                                                                  
C06  37223297.625                1        430.453          29.000    37223291.011   149882771.470         333.646          42.000  
C08  37707209.300   196351336.439         567.772          37.000    37707195.822   151831262.583         439.447          38.000  
C09  38451563.866   200227383.538         536.543          40.000    38451555.137   154828478.781         415.083          44.000  
C23  23693904.269   123380396.084        1671.684          44.000                                                                  
C13  37945950.049   197594522.8912        592.301          35.000    37945945.607   152792596.894         460.703          35.000  
R07  23054536.422                         711.263          19.000                                                                  
R22  22673092.629                        1178.073          25.000    22673081.111                         933.883          16.000  
R09  21900151.287                        2904.166          30.000    21900148.598    90957657.340        2256.458          35.000  
R16  21851257.043   116725502.033        -418.359          41.000    21851260.904    90786509.7883       -323.712          29.000  
R21  21708609.209   116167152.658       -2934.643          43.000    21708605.461    90352218.533       -2282.013          40.000  
R20  24166273.052   129227922.0063      -4430.432          33.000    24166290.935   100510680.0623      -3451.358          22.000  
S29  37755536.072   198406677.629        -285.274          42.000  
J07  37350996.787   196280822.062        -285.411          32.000    37350992.569   152946074.707        -223.261          39.000  
G25  24577399.382   129155104.7433       2589.191          28.000                                                                  
E26  25033773.600   131553349.920       -2335.941          43.000    25033770.885   100800628.804       -1788.991          44.000  
G10  24534298.640                        2488.929          23.000                                                                  
C16  37530171.000   195429453.417         247.646          36.000    37530164.779   151118426.036         189.734          37.000  
R06  22174140.747   118325463.843        -326.375          28.000                                                                  
E29  25057147.225   131676189.692       -1038.239          38.000    25057146.753   100894749.436        -795.042          30.000  
J03  36834498.164   193566589.749        -152.710          41.000    36834496.077   150831119.864        -118.762          36.000  
E33  24689572.914                         256.864          19.000    24689552.479                         193.300          30.000  
E21  28574151.232   150158178.1251       1794.154          26.000    28574146.969                        1379.045          25.000  
G23                                                                  21603931.875    88464489.226        1005.994          30.000  
G32                                                                  24513014.694                         763.704          17.000  
J04                                                                  40273437.961   164912988.449          98.304          35.000  
> 2025 10 27 01 25 38.0030000  0 32                     
S37  37351046.866   196281080.435        -286.551          39.000  
G12  24540271.394   128960009.0441       1864.671          35.000    24540266.138   100488287.0181       1453.140          25.000  
G23  21603694.295   113528178.9763       1289.136          37.000    21603686.540    88463483.807        1004.230          37.000  
S28  38174004.207   200605745.005        -283.364          35.000  
G18  21651842.757   113781197.137       -1721.649          40.000    21651838.672    88660653.153       -1341.461          45.000  
G24  21513487.683   113054140.263       -2287.171          41.000    21513482.755    88094130.173       -1782.533          31.000  
C25  23794213.312   123902721.941       -1020.219          38.000                                                                  
C06  37223221.850   193831048.0363        429.144          43.000    37223208.314   149882439.137         331.848          41.000  
C08  37707100.153   196350768.145         567.362          41.000    37707086.646   151830823.118         439.055          40.000  
C09  38451460.929   200226847.689         534.550          36.000    38451452.189   154828064.397         413.417          45.000  
C23  23693583.640   123378725.274        1670.485          39.000                                                                  
C13  37945837.535   197593929.1162        593.125          37.000    37945831.592   152792137.900         458.338          38.000  
R07  23054405.155                         710.079          17.000                                                                  
R22  22672874.481                        1175.147          24.000    22672855.806                         912.912          14.000  
R09  21899611.849   116942704.9283       2900.830          35.000    21899605.620    90955401.325        2255.628          27.000  
R16  21851336.249                        -419.402          37.000    21851339.777    90786834.7752       -326.520          31.000  
R21  21709157.787   116170087.986       -2936.786          46.000    21709153.996    90354501.514       -2283.997          40.000  
R20  24167103.523   129232357.3552      -4434.113          30.000    24167123.743   100514144.2202      -3450.172          30.000  
S29  37755590.505   198406963.720        -286.490          42.000  
J07  37351051.456   196281108.729        -287.372          33.000    37351046.912   152946298.077        -224.252          37.000  
G25  24576910.808   129152537.8652       2583.642          33.000                                                                  
E26  25034217.628   131555685.993       -2336.694          43.000    25034215.786   100802418.727       -1790.246          47.000  
G10  24533823.751                        2488.936          25.000                                                                  
C16  37530123.505   195429207.013         245.065          39.000    37530117.446   151118235.424         189.927          42.000  
R06  22174201.863   118325789.261        -325.364          29.000                                                                  
E29  25057344.865   131677228.125       -1038.197          41.000    25057344.887   100895543.8471       -795.180          38.000  
J03  36834527.444   193566742.870        -153.906          39.000    36834525.257   150831239.216        -119.806          36.000  
J02  38031514.292                        -282.019          28.000                                                                  
E33  24689523.887                         250.166          20.000    24689501.555    99414404.1371        193.500          29.000  
E21  28573817.558                        1790.180          25.000    28573809.023                        1373.782          25.000  
G32                                                                  24512828.406                         763.704          14.000  
J04                                                                  40273413.516   164912888.749          99.025          37.000  
> 2025 10 27 01 25 39.0030000  0 31                     
S37  37351101.911   196281369.484        -288.948          40.000  
G12  24539916.345   128958145.292        1862.916          38.000    24539914.820                        1447.762          25.000  
G23  21603445.794   113526891.0752       1287.933          40.000    21603441.377    88462480.329        1004.242          36.000  
S28  38174058.624   200606030.310        -284.411          35.000  
G18  21652170.612   113782919.989       -1718.933          39.000    21652166.466    88661995.681       -1340.759          43.000  
G24  21513923.433   113056429.941       -2290.687          45.000    21513918.539    88095914.227       -1785.444          33.000  
C25  23794409.618   123903743.761       -1022.535          41.000                                                                  
C06  37223138.337   193830619.7811        431.411          38.000    37223126.085   149882108.525         332.164          43.000  
C08  37706991.449   196350202.005         565.557          41.000    37706977.960   151830385.293         437.607          41.000  
C09  38451358.421   200226314.023         534.031          38.000    38451349.746   154827651.710         413.708          41.000  
C23  23693263.485   123377057.151        1668.548          43.000                                                                  
C13  37945723.339   197593337.555         590.219          37.000    37945718.075   152791680.430         458.135          36.000  
R07  23054272.858                         705.524          15.000                                                                  
R22  22672652.255                        1175.462          25.000    22672633.915                         937.715          15.000  
R09  21899066.646   116939806.5642       2897.260          32.000    21899063.118    90953146.728        2253.583          32.000  
R16  21851414.260   116726331.9933       -421.143          40.000    21851419.423    90787168.9993       -329.691          27.000  
R21  21709706.808   116173025.702       -2938.800          43.000    21709703.012    90356786.415       -2284.290          39.000  
R20  24167932.219                       -4434.845          30.000    24167953.105   100517592.9382      -3448.995          30.000  
S29  37755645.301   198407251.821        -286.096          40.000  
J07  37351106.383   196281397.754        -288.966          36.000    37351101.900   152946523.357        -225.295          40.000  
G25  24576419.986                        2581.979          27.000                                                                  
E26  25034662.055   131558024.724       -2339.637          43.000    25034660.859   100804210.693       -1791.583          44.000  
G10  24533353.099                        2475.334          21.000                                                                  
C16  37530076.720   195428962.983         239.706          36.000    37530070.675   151118046.729         187.652          42.000  
R06  22174263.332   118326117.002        -329.478          29.000                                                                  
E29  25057543.363   131678268.750       -1041.740          36.000    25057542.399   100896341.263        -798.781          38.000  
J03  36834557.017   193566898.386        -158.044          33.000    36834554.988   150831360.472        -121.423          32.000  
J02  38031573.523   199857267.4763       -282.631          28.000                                                                  
E33  24689474.755                         248.728          22.000    24689453.852                         191.392          27.000  
E21  28573479.580                        1793.405          25.000    28573467.311                        1372.871          23.000  
J04                                                                  40273389.588   164912790.881          98.000          35.000  
> 2025 10 27 01 25 40.0030000  0 31                     
S37  37351156.705   196281657.072        -285.442          42.000  
G12  24539560.683   128956261.2133       1864.562          34.000    24539562.241                        1451.049          23.000  
G23  21603200.309   113525602.6942       1290.222          37.000    21603196.199    88461476.454        1003.528          32.000  
S28  38174112.480   200606313.725        -279.955          30.000  
G18  21652498.283   113784641.980       -1721.857          41.000    21652494.051    88663337.386       -1340.308          39.000  
G24  21514359.095   113058719.395       -2289.141          47.000    21514354.642    88097685.2441      -1783.212          34.000  
C25  23794605.867   123904765.596       -1020.215          30.000                                                                  
C06  37223050.218   193830190.922         430.670          37.000    37223043.597   149881776.853         333.009          38.000  
C08  37706882.692   196349635.290         568.446          40.000    37706869.199   151829947.058         440.125          43.000  
C09  38451255.756   200225778.640         536.680          41.000    38451247.019   154827237.787         415.308          44.000  
C23  23692943.151   123375388.023        1670.075          39.000                                                                  
C13  37945609.882   197592745.258         592.390          31.000    37945604.288   152791222.535         459.695          34.000  
R07  23054141.749                         714.767          17.000                                                                  
R22  22672433.141                        1169.048          25.000                                                                  
R09  21898525.946   116936907.8842       2898.179          34.000    21898520.463                1       2257.935          27.000  
R16  21851491.417                        -419.586          34.000    21851496.482                        -323.346          26.000  
R21  21710255.424   116175961.973       -2934.460          43.000    21710251.769    90359070.281       -2282.697          39.000  
R20  24168763.111   129241237.6833      -4436.674          29.000    24168778.919   100521042.1472      -3448.504          31.000  
S29  37755699.702   198407538.325        -285.098          39.000  
G32  24512482.429                         982.399          29.000                                                                  
J07  37351161.244   196281685.338        -285.372          37.000    37351156.664   152946747.474        -223.466          38.000  
G25  24575935.982   129147414.5603       2584.397          27.000                                                                  
E26  25035106.306   131560361.894       -2335.255          44.000    25035105.665   100806001.556       -1790.025          46.000  
G10  24532881.804                        2488.799          19.000                                                                  
C16  37530029.561   195428717.233         246.379          41.000    37530023.528   151117856.643         191.315          44.000  
R06  22174324.642   118326444.099        -324.736          30.000                                                                  
E29  25057741.298   131679308.527       -1038.913          37.000    25057739.489   100897137.726        -793.855          29.000  
J03  36834586.372   193567052.299        -152.466          43.000    36834584.418   150831480.390        -118.353          34.000  
E33  24689425.915                         254.207          23.000    24689408.218                         193.641          21.000  
E21  28573141.676                        1796.083          24.000    28573140.682                        1379.763          23.000  
J04                                                                  40273365.440   164912692.325          99.216          31.000  
> 2025 10 27 01 25 41.0030000  0 30                     
S37  37351211.108   196281942.601        -285.014          40.000  
G12  24539201.474   128954394.3532       1865.345          33.000    24539205.244                        1449.535          23.000  
G23  21602955.720   113524298.1993       1290.015          36.000    21602950.518    88460470.893        1004.291          29.000  
S28  38174165.913   200606595.023        -281.223          37.000  
G18  21652825.635   113786362.237       -1720.386          40.000    21652821.259    88664677.879       -1340.210          43.000  
G24  21514794.421   113061006.917       -2288.304          44.000    21514791.149                       -1787.223          31.000  
C25  23794801.713   123905785.542       -1018.546          34.000                                                                  
C06  37222969.551   193829759.868         432.494          34.000    37222960.755   149881443.438         335.376          39.000  
C08  37706773.312   196349066.013         568.157          38.000    37706759.986   151829506.914         439.263          38.000  
C09  38451152.602   200225241.389         538.112          36.000    38451143.823   154826822.258         415.693          45.000  
C23  23692622.712   123373717.078        1671.307          42.000                                                                  
C13  37945495.544   197592150.502         594.249          31.000    37945490.123   152790762.492         460.174          31.000  
R07  23054007.479                         712.941          20.000                                                                  
R22  22672212.716                        1174.939          30.000    22672198.865                         919.452          18.000  
R09  21897982.273                        2901.695          37.000    21897978.461    90948652.6683       2258.021          28.000  
R16  21851573.407   116727182.8713       -418.878          40.000    21851567.991                        -327.647          26.000  
R21  21710803.834   116178896.702       -2935.578          45.000    21710800.177    90361352.798       -2283.362          39.000  
R20  24169594.677   129245683.9253      -4432.796          36.000    24169606.279   100524469.1973      -3445.481          30.000  
S29  37755753.868   198407822.483        -283.390          44.000  
J07  37351215.605   196281970.872        -285.286          35.000    37351211.120   152946969.941        -221.785          38.000  
G25  24575436.715                        2585.666          26.000                                                                  
E26  25035551.222   131562697.513       -2335.040          45.000    25035550.230   100807791.198       -1789.473          43.000  
G10  24532405.867                        2489.134          23.000                                                                  
C16  37529982.029   195428469.816         247.457          38.000    37529975.989   151117665.312         191.302          45.000  
R06  22174385.736   118326770.6563       -325.801          29.000                                                                  
E29  25057938.414   131680345.687       -1038.017          39.000    25057937.062   100897928.6601       -795.001          37.000  
J03  36834615.438   193567204.447        -151.837          39.000    36834613.072   150831598.917        -118.207          37.000  
E33  24689379.955                         250.190          22.000    24689361.172                         192.457          22.000  
E21  28572800.284                        1789.807          23.000    28572810.474                        1377.808          23.000  
J04                                                                  40273340.853   164912591.850         100.165          31.000  
> 2025 10 27 01 25 42.0030000  0 30                     
S37  37351265.440   196282228.513        -284.537          30.000  
G23  21602711.198   113523008.6892       1292.035          28.000    21602706.298    88459470.0691       1006.531          36.000  
S28  38174219.863                        -301.074          30.000  
G18  21653153.249   113788083.836       -1719.952          41.000    21653149.009    88666019.538       -1342.401          39.000  
G24  21515229.973   113063295.787       -2287.880          43.000    21515224.819    88101248.3891      -1783.073          30.000  
C25  23794997.787   123906806.600       -1020.933          37.000                                                                  
C06  37222888.393   193829329.587         430.403          40.000    37222878.088   149881110.715         335.795          41.000  
C08  37706664.120   196348497.661         569.379          36.000    37706650.837   151829067.408         440.528          39.000  
C09  38451049.547   200224704.558         538.649          37.000    38451040.783   154826407.184         416.807          45.000  
C23  23692301.901   123372046.949        1670.188          37.000                                                                  
C13  37945380.430   197591556.450         594.461          35.000    37945376.040   152790303.084         461.116          34.000  
R07  23053876.496                         702.481          18.000                                                                  
R22  22671997.593                        1180.069          22.000    22671980.833                         884.150          16.000  
R09  21897442.919   116931102.5763       2901.843          32.000    21897443.964    90946433.3463       2257.410          29.000  
R16  21851651.847   116727604.0772       -419.293          37.000    21851648.737    90788121.0293       -328.728          27.000  
R21  21711352.535   116181832.619       -2934.027          45.000    21711348.889    90363636.334       -2281.885          39.000  
R20  24170423.292   129250116.6182      -4427.798          26.000    24170431.760   100527916.8142      -3445.295          29.000  
S29  37755808.075   198408107.345        -280.757          40.000  
J07  37351269.867   196282256.747        -284.215          27.000    37351265.499   152947192.583        -221.704          35.000  
G25  24574946.381   129142214.2033       2587.181          27.000                                                                  
E26  25035996.595   131565033.843       -2334.643          43.000    25035995.702   100809581.287       -1788.187          44.000  
G10  24531930.843                        2493.314          23.000                                                                  
C16  37529934.681   195428223.004         246.762          39.000    37529928.559   151117474.361         192.772          42.000  
R06  22174446.426   118327096.0102       -325.647          28.000                                                                  
E29  25058135.863                       -1038.333          30.000    25058135.744   100898724.203        -794.196          36.000  
J03  36834644.602   193567357.004        -151.483          41.000    36834642.141   150831717.687        -115.912          31.000  
E33  24689334.261                         248.575          21.000    24689313.585                         185.411          20.000  
E21  28572460.259                        1798.220          22.000    28572470.119                        1379.624          21.000  
G12                                                                  24538849.655                        1451.738          22.000  
J04                                                                  40273316.167   164912496.7791        102.069          34.000  
> 2025 10 27 01 25 43.0030000  0 32                     
S37  37351319.463   196282513.662        -284.499          39.000  
G12  24538492.498   128950648.0813       1861.789          23.000    24538494.977                        1448.351          22.000  
G23  21602466.944   113521729.1773       1291.364          41.000    21602460.423    88458465.452        1002.205          30.000  
S28  38174273.880                        -276.758          29.000  
G18  21653480.724                1      -1719.434          42.000    21653476.704    88667360.744       -1340.924          41.000  
G24  21515665.583   113065584.920       -2288.751          41.000    21515660.976    88103032.125       -1785.063          29.000  
C25  23795193.872   123907827.495       -1019.635          38.000                                                                  
C06  37222806.034   193828898.520         431.979          40.000    37222795.222   149880777.356         333.945          42.000  
C08  37706554.879   196347928.905         569.604          36.000    37706541.603   151828627.646         440.637          38.000  
C09  38450946.335   200224166.811         537.089          38.000    38450937.619   154825991.395         415.876          45.000  
C23  23691983.246   123370373.0103       1667.337          30.000                                                                  
C13  37945266.415                         593.933          26.000    37945261.871   152789843.558         459.734          34.000  
R07  23053746.614                         708.044          18.000                                                                  
R22  22671776.711                        1169.049          21.000    22671760.693                         908.864          15.000  
R09  21896904.013                        2899.926          34.000    21896901.312    90944177.6072       2252.987          29.000  
R16  21851729.253   116728025.2781       -422.296          36.000    21851729.345                        -334.806          26.000  
R21  21711901.156   116184768.050       -2936.457          44.000    21711897.320    90365919.318       -2282.672          36.000  
R20  24171250.999   129254547.0321      -4431.517          26.000    24171262.543   100531358.0833      -3449.146          29.000  
S29  37755862.246   198408391.340        -282.026          43.000  
J07  37351324.087   196282541.931        -284.325          36.000    37351319.755   152947414.929        -221.715          40.000  
G25  24574454.138                        2595.905          26.000                                                                  
E26  25036441.644   131567369.701       -2337.049          43.000    25036440.242   100811371.201       -1790.655          43.000  
G10  24531458.062                        2490.109          23.000                                                                  
C16  37529887.213   195427975.578         248.702          43.000    37529881.136   151117283.202         189.926          43.000  
R06  22174507.725                        -323.584          25.000                                                                  
E19  25447859.587                         349.577          14.000                                                                  
J03  36834673.608   193567508.860        -154.041          34.000    36834671.680                1       -115.105          31.000  
J02  38031806.638                        -282.373          26.000                                                                  
E33  24689287.535                         248.243          20.000    24689265.501                         191.492          19.000  
E21  28572116.645                        1798.615          23.000    28572126.885                        1373.446          22.000  
E29                                                                  25058333.249                        -796.021          29.000  
J04                                                                  40273293.204   164912396.590         100.100          34.000  
> 2025 10 27 01 25 44.0030000  0 30                     
S37  37351373.574   196282798.533        -284.014          37.000  
G12  24538138.646                        1865.223          24.000    24538140.573                        1455.300          28.000  
G23  21602218.469   113520439.1322       1289.740          39.000    21602214.191    88457454.9711       1005.731          36.000  
S28  38174332.621                        -312.354          28.000  
G18  21653808.328   113791530.7623      -1721.124          43.000    21653804.309    88668702.318       -1344.745          34.000  
G24  21516101.079   113067873.717       -2288.903          47.000    21516099.509    88104815.570       -1785.022          32.000  
C25  23795389.905   123908848.637       -1021.765          37.000                                                                  
C06  37222722.767   193828467.215         432.817          41.000    37222712.490   149880443.961         333.364          38.000  
C08  37706445.484   196347359.314         568.868          39.000    37706432.254   151828187.223         440.755          39.000  
C09  38450842.889   200223629.017         539.307          37.000    38450834.361   154825575.551         415.329          39.000  
C23  23691667.167   123368727.3202       1670.194          36.000                                                                  
C13  37945153.544                         595.654          26.000    37945147.618   152789383.291         459.817          31.000  
R07  23053615.910                         710.268          17.000                                                                  
R22  22671555.876                        1178.043          19.000    22671542.622                         911.589          15.000  
R16  21851812.388                1       -428.203          29.000    21851808.457    90788784.5733       -327.594          31.000  
R21  21712449.763   116187703.708       -2935.999          44.000    21712445.936    90368202.646       -2284.179          36.000  
R20  24172082.727                1      -4434.121          27.000                                                                  
S29  37755916.173   198408677.8913       -283.032          39.000  
J07  37351378.367   196282826.821        -284.208          35.000    37351374.149   152947636.996        -224.175          34.000  
G25  24573967.836   129137072.5273       2589.053          35.000                                                                  
E26  25036885.606   131569705.364       -2334.289          40.000    25036885.495   100813160.955       -1789.705          42.000  
G10  24530982.836                        2487.280          23.000                                                                  
C16  37529839.560   195427727.852         247.438          41.000    37529833.619   151117091.568         191.033          44.000  
R06  22174567.922                        -328.017          22.000                                                                  
E29  25058536.702   131683498.8811      -1037.314          34.000    25058528.893   100900311.1631       -794.191          32.000  
J03  36834702.711   193567660.563        -154.437          32.000    36834708.410   150831972.7171       -115.796          31.000  
E33  24689239.781                         254.434          21.000    24689219.098                         185.464          20.000  
E21  28571773.747                        1795.971          25.000    28571781.181                        1383.272          23.000  
R09                                                                  21896360.429    90941932.5493       2258.625          29.000  
J04                                                                  40273268.444   164912295.497         102.111          37.000  
> 2025 10 27 01 25 45.0030000  0 30                     
S37  37351427.820   196283082.651        -282.709          37.000  
G12  24537782.869   128946919.0393       1865.802          26.000    24537784.348                        1457.583          14.000  
G23  21601973.449   113519148.7492       1289.819          43.000    21601969.006    88456449.507        1004.962          34.000  
S28  38174392.688                        -271.631          32.000  
G18  21654135.993   113793252.1672      -1720.752          36.000    21654131.726    88670043.448       -1340.430          42.000  
G24  21516536.595   113070162.553       -2290.129          45.000    21516532.488    88106599.093       -1784.531          35.000  
C25  23795588.049   123909870.6353      -1020.274          38.000                                                                  
C06  37222639.869   193828035.475         431.312          33.000    37222629.521   149880109.821         333.759          39.000  
C08  37706335.925   196346789.210         569.948          41.000    37706322.697   151827746.324         440.982          37.000  
C09  38450739.632   200223090.872         537.648          35.000    38450731.041   154825159.350         417.050          43.000  
C23  23691342.359   123367055.9701       1670.354          38.000                                                                  
C13  37945039.034   197589775.3733        596.691          31.000    37945033.002   152788922.395         460.263          34.000  
R07  23053484.292                         702.899          18.000                                                                  
R22  22671337.598                        1181.223          18.000    22671326.283                         897.394          13.000  
R16  21851895.950   116728905.1873       -419.336          38.000    21851886.139    90789107.4553       -329.087          27.000  
R21  21712998.469   116190639.436       -2935.358          44.000    21712994.615    90370486.032       -2282.660          37.000  
R20  24172914.509   129263436.6803      -4429.863          31.000    24172918.380   100538244.8723      -3443.952          28.000  
S29  37755969.898   198408960.7632       -282.197          43.000  
J07  37351432.603   196283110.964        -283.500          34.000    37351428.265   152947858.330        -221.151          39.000  
G25  24573472.393                        2588.413          28.000                                                                  
E26  25037329.212   131572040.870       -2334.690          43.000    25037329.930   100814950.578       -1788.590          40.000  
G10  24530511.173                        2489.285          22.000                                                                  
C16  37529791.801   195427479.562         249.955          41.000    37529786.024   151116899.770         192.172          44.000  
R06  22174630.373                        -324.136          19.000                                                                  
E29  25058728.317   131684535.444       -1037.248          37.000    25058726.048   100901105.488        -795.632          38.000  
J03  36834740.272   193567865.9803       -150.763          35.000    36834740.604   150832104.8671       -116.412          35.000  
E33  24689191.193                         254.817          20.000    24689170.520                         191.805          23.000  
E21  28571429.773                        1802.127          26.000    28571439.016                        1379.710          24.000  
R09                                                                  21895817.468    90939678.3892       2254.256          30.000  
J04                                                                  40273244.311   164912194.061         100.841          38.000  
> 2025 10 27 01 25 46.0030000  0 30                     
S37  37351481.846   196283366.394        -285.885          37.000  
G12  24537432.923   128945052.6122       1866.051          32.000    24537428.588                        1456.852          16.000  
G23  21601727.372   113517858.4022       1287.781          44.000    21601723.562    88455444.073        1002.863          39.000  
S28  38174445.152   200608063.2363       -281.169          34.000  
G18  21654463.620   113794973.7792      -1723.639          43.000    21654459.470    88671385.130       -1343.073          41.000  
G24  21516972.256   113072451.630       -2291.130          43.000    21516969.292    88108382.690       -1785.106          35.000  
C25  23795785.037   123910896.4393      -1025.471          36.000                                                                  
C06  37222556.848   193827603.326         429.202          38.000    37222546.551   149879775.940         333.516          36.000  
C08  37706226.480   196346218.955         568.057          38.000    37706213.126   151827305.302         439.197          41.000  
C09  38450636.236   200222552.216         537.056          35.000    38450627.637   154824742.745         416.060          46.000  
C23  23691023.987   123365385.114        1669.484          30.000                                                                  
C13  37944923.201   197589172.1233        593.119          37.000    37944918.548   152788461.367         458.846          34.000  
R07  23053352.759                         699.805          16.000                                                                  
R22  22671123.144                        1192.198          16.000    22671112.215                         911.397          12.000  
R09  21895274.770   116919545.1753       2900.136          30.000    21895275.428    90937422.4062       2255.063          31.000  
R16  21851973.104   116729327.2862       -426.544          37.000    21851963.385                        -327.492          26.000  
R21  21713547.166   116193575.342       -2938.153          43.000    21713543.192    90372769.479       -2284.332          39.000  
R20  24173742.933                       -4430.198          25.000    24173746.225   100541687.5733      -3444.744          27.000  
S29  37756023.582   198409243.2342       -283.700          45.000  
J07  37351486.518   196283394.669        -286.184          33.000    37351482.375   152948079.502        -222.600          39.000  
G25  24572976.258                        2587.416          20.000                                                                  
E26  25037774.503   131574376.315       -2337.052          42.000    25037772.017   100816739.842       -1789.559          41.000  
G10  24530037.435                        2499.111          20.000                                                                  
C16  37529744.116   195427231.221         246.477          42.000    37529738.353   151116707.525         191.167          44.000  
R06  22174690.797                        -325.823          18.000                                                                  
E29  25058926.508   131685571.946       -1038.562          39.000    25058923.932   100901899.511        -795.040          39.000  
J03  36834768.851                        -150.581          29.000    36834767.644   150832222.378        -117.566          32.000  
E21  28571085.173   150142065.0001       1798.636          30.000    28571098.776                        1376.384          24.000  
E33                                                                  24689122.962                         187.432          21.000  
J04                                                                  40273218.595   164912097.2721        100.437          33.000  
> 2025 10 27 01 25 47.0030000  0 30                     
S37  37351535.959   196283650.996        -285.077          36.000  
G12  24537071.192                        1887.336          21.000    24537075.026                        1446.510          20.000  
G23  21601482.657   113516569.3982       1288.647          45.000    21601476.692    88454439.596        1003.656          39.000  
S28  38174497.901                        -289.795          30.000  
G18  21654791.544   113796697.0572      -1723.077          43.000    21654787.190    88672727.789       -1343.677          42.000  
G24  21517408.238   113074742.210       -2292.061          44.000    21517404.728    88110167.637       -1786.640          35.000  
C25  23795977.530   123911919.2432      -1023.335          33.000                                                                  
C06  37222474.053   193827172.216         431.743          41.000    37222463.791   149879442.649         331.781          38.000  
C08  37706117.091   196345649.582         568.803          37.000    37706103.860   151826865.098         438.899          42.000  
C09  38450533.020   200222014.455         538.146          39.000    38450524.450   154824327.038         415.809          43.000  
C23  23690709.754   123363741.8633       1668.249          33.000                                                                  
C13  37944809.417   197588577.0602        594.844          34.000    37944804.214   152788001.258         459.703          34.000  
R07  23053222.270                         703.840          14.000                                                                  
R22  22670903.331                        1175.981          16.000    22670895.007                         907.553          12.000  
R16  21852053.250                        -424.547          27.000    21852043.341                        -331.714          30.000  
R21  21714095.915   116196512.403       -2937.384          43.000    21714092.052    90375053.846       -2284.076          39.000  
S29  37756077.440   198409526.6022       -282.469          43.000  
J07  37351540.675   196283679.314        -286.777          29.000    37351536.688   152948301.189        -223.647          31.000  
G25  24572483.817   129129273.6013       2589.717          29.000                                                                  
E26  25038218.709   131576712.895       -2337.079          35.000    25038216.156   100818530.258       -1790.557          40.000  
G10  24529562.807                        2491.195          18.000                                                                  
C16  37529696.874   195426983.863         246.586          40.000    37529690.887   151116516.346         191.804          43.000  
R06  22174751.280                        -315.655          19.000                                                                  
E29  25059123.028   131686609.599       -1039.102          41.000    25059122.442   100902694.600        -795.899          38.000  
J03  36834795.027   193568153.6523       -152.240          35.000    36834789.174                        -119.599          34.000  
J02  38032039.554                        -280.055          27.000                                                                  
E21  28570743.956   150140266.822        1796.843          31.000    28570760.394   115042612.2031       1377.684          30.000  
E33                                                                  24689074.647                         184.301          20.000  
R09                                                                  21894736.558    90935188.2893       2254.866          35.000  
J04                                                                  40273194.903   164911996.206          99.377          35.000  
> 2025 10 27 01 25 48.0030000  0 29                     
S37  37351590.485   196283936.786        -289.486          38.000  
G23  21601236.370   113515281.6852       1284.308          45.000    21601231.277    88453436.105        1001.166          38.000  
S28  38174550.998                        -292.578          28.000  
G18  21655119.717   113798421.7962      -1729.962          38.000    21655115.387    88674071.818       -1347.119          41.000  
G24  21517844.434   113077034.420       -2293.983          42.000    21517841.482    88111953.775       -1786.872          32.000  
C25  23796177.422                       -1026.662          29.000                                                                  
C06  37222391.775   193826742.485         424.615          34.000    37222381.272   149879110.210         331.238          42.000  
C08  37706007.886   196345081.242         565.997          35.000    37705994.803   151826425.654         437.743          41.000  
C09  38450429.802   200221477.704         534.920          41.000    38450421.436   154823911.955         412.881          44.000  
C23  23690397.983   123362073.6982       1665.017          33.000                                                                  
C13  37944695.188   197587982.9272        591.616          38.000    37944690.100   152787541.793         457.957          37.000  
R07  23053089.119                         719.846          13.000                                                                  
R22  22670686.880                        1171.173          17.000    22670674.831                         918.893          13.000  
R09  21894189.455   116913749.6183       2895.633          31.000    21894195.368    90932934.1532       2250.803          37.000  
R16  21852135.455                        -427.753          27.000    21852122.436                        -332.065          24.000  
R21  21714644.981   116199450.912       -2941.260          42.000    21714641.338    90377339.420       -2287.762          37.000  
S29  37756131.590   198409810.9632       -288.746          41.000  
J07  37351595.122   196283965.027        -289.049          34.000    37351589.721   152948515.8301       -224.340          31.000  
G25  24571992.405   129126690.8012       2584.493          33.000                                                                  
E26  25038666.108   131579050.774       -2340.745          46.000    25038660.477   100820321.691       -1792.908          41.000  
C16  37529649.766   195426737.687         245.863          39.000    37529643.643   151116325.937         189.100          40.000  
R06  22174811.213                        -322.317          19.000                                                                  
E29  25059317.167   131687648.077       -1041.350          45.000    25059318.725   100903490.391        -797.324          40.000  
J03  36834828.795   193568306.0272       -155.408          30.000    36834819.037   150832425.7371       -124.951          29.000  
J02  38032090.069                        -285.014          35.000                                                                  
E21  28570407.999   150138507.3751       1795.003          26.000    28570410.889                        1377.170          23.000  
E33                                                                  24689029.591                         184.906          17.000  
G12                                                                  24536721.163                        1454.131          21.000  
J04                                                                  40273168.033   164911895.654         100.431          32.000  
> 2025 10 27 01 25 49.0030000  0 29                     
S37  37351644.813   196284218.1933       -284.434          35.000  
G12  24536361.650   128939450.2323       1864.605          35.000    24536367.804                        1455.825          21.000  
G23  21600991.207   113513992.8331       1287.152          44.000    21600985.863    88452432.199        1003.021          36.000  
S28  38174603.999   200608897.6453       -281.238          30.000  
G18  21655447.802   113800146.096       -1725.354          41.000    21655443.457    88675415.307       -1343.250          45.000  
G24  21518280.578   113079326.472       -2293.902          40.000    21518277.301    88113739.850       -1786.836          35.000  
C25  23796376.055                       -1024.683          28.000                                                                  
C06  37222309.110   193826311.803         428.802          39.000    37222298.596   149878777.073         333.046          38.000  
C08  37705898.455                1        567.165          34.000    37705885.606   151825985.642         438.594          38.000  
C09  38450326.622   200220940.247         536.084          35.000    38450318.344   154823496.340         414.972          45.000  
C23  23690081.578   123360404.5812       1668.946          28.000                                                                  
C13  37944580.446   197587387.9692        593.709          42.000    37944575.813   152787081.767         458.251          34.000  
R07  23052955.417                         713.595          15.000                                                                  
R22  22670469.391                        1154.152          17.000    22670451.076                         942.256          13.000  
R09  21893646.367   116910849.4442       2897.261          38.000    21893651.622    90930682.5533       2254.774          33.000  
R16  21852211.493   116730590.4963       -429.144          33.000    21852201.736                        -329.368          24.000  
R21  21715194.200   116202389.128       -2939.069          44.000    21715190.433    90379624.669       -2285.413          37.000  
S29  37756185.485   198410094.0922       -283.941          42.000  
J07  37351652.358   196284257.0093       -285.201          30.000    37351645.913   152948737.920        -223.124          35.000  
G25  24571503.926                        2608.210          27.000                                                                  
E26  25039110.709   131581388.157       -2338.210          43.000    25039106.168   100822112.714       -1792.176          41.000  
C16  37529602.962   195426490.1843        247.141          42.000    37529596.220   151116135.050         190.885          41.000  
R06  22174870.996                        -330.279          19.000                                                                  
E29  25059516.420   131688685.867       -1038.889          45.000    25059517.296   100904285.470        -795.296          41.000  
J03  36834855.832   193568457.0491       -151.678          36.000    36834850.505   150832555.0941       -118.732          36.000  
J02  38032142.196                        -277.785          27.000                                                                  
E21  28570067.323                        1793.415          24.000    28570071.592                        1373.326          23.000  
E33                                                                  24688982.909                         185.654          19.000  
J04                                                                  40273143.053                         100.793          29.000  
> 2025 10 27 01 25 50.0030000  0 31                     
S37  37351698.824   196284501.7712       -285.791          36.000  
G12  24536005.431   128937583.9232       1863.994          34.000    24536011.982                        1455.567          21.000  
G23  21600745.898   113512703.748        1288.019          44.000    21600741.351    88451427.675        1002.301          37.000  
S28  38174656.617   200609176.7082       -280.412          34.000  
G18  21655775.683   113801869.529       -1725.781          42.000    21655771.416    88676758.358       -1344.257          37.000  
G24  21518716.615   113081618.164       -2293.122          45.000    21518713.727    88115534.7971      -1788.920          28.000  
C25  23796570.750   123914997.7233      -1026.487          35.000                                                                  
C06  37222226.225   193825879.666         430.924          36.000    37222215.557   149878443.086         332.321          38.000  
C08  37705788.402   196343934.6223        568.599          39.000    37705776.079   151825544.781         441.331          35.000  
C09  38450223.203   200220401.414         537.411          37.000    38450214.825   154823079.658         416.081          45.000  
C23  23689742.603                        1667.499          21.000                                                                  
C13  37944465.727   197586791.9332        594.695          41.000    37944461.394   152786620.950         457.680          31.000  
R07  23052821.745                         702.364          18.000                                                                  
R22  22670250.923                        1177.466          17.000    22670230.746                         917.364          13.000  
R09  21893106.515   116907950.1552       2894.307          34.000                                                                  
R21  21715743.142   116205326.504       -2938.782          39.000    21715739.225    90381909.312       -2286.597          34.000  
R20  24177060.899                       -4435.841          25.000                                                                  
S29  37756239.030   198410375.8322       -282.962          42.000  
J07  37351705.801   196284538.5462       -285.948          31.000    37351702.441   152948958.798        -220.858          40.000  
G25  24571011.685                        2589.567          30.000                                                                  
E26  25039555.366   131583724.479       -2338.149          42.000    25039549.554   100823902.797       -1791.701          38.000  
C16  37529555.367   195426242.0402        246.708          42.000    37529548.562   151115943.058         191.151          44.000  
R06  22174930.242                        -319.358          17.000                                                                  
E29  25059714.598   131689722.718       -1038.986          45.000    25059713.769   100905079.960        -794.902          39.000  
E19  25447410.625                         325.087          15.000                                                                  
J03  36834887.853   193568641.9503       -152.411          28.000    36834882.701   150832686.8841       -116.534          36.000  
J02  38032188.642                        -277.194          26.000                                                                  
E21  28569728.938                        1782.628          22.000    28569727.326                        1380.388          24.000  
E33                                                                  24688935.249                         176.172          19.000  
R16                                                                  21852285.461                        -333.181          25.000  
J04                                                                  40273121.227   164911685.9121         99.225          30.000  
> 2025 10 27 01 25 51.0030000  0 31                     
S37  37351753.131   196284786.4232       -284.953          40.000  
G12  24535651.008                        1865.829          22.000    24535657.070                        1461.211          21.000  
G23  21600500.882   113511416.010        1287.903          41.000    21600496.518    88450424.217        1003.784          38.000  
S28  38174709.602   200609457.0532       -282.128          32.000  
G18  21656104.051   113803594.906       -1725.281          37.000    21656099.763    88678102.928       -1343.372          43.000  
G24  21519152.986   113083911.199       -2294.074          42.000    21519148.782                       -1786.366          27.000  
C25  23796766.223                       -1025.558          27.000                                                                  
C06  37222143.574   193825449.303         428.761          30.000    37222132.778   149878110.163         333.083          45.000  
C08  37705679.318   196343364.9661        570.905          38.000    37705666.747   151825104.758         441.100          37.000  
C09  38450120.062   200219863.840         536.609          42.000    38450111.653   154822664.062         415.352          44.000  
C23  23689427.921   123357067.4753       1669.972          30.000                                                                  
C13  37944352.308   197586196.5291        595.552          39.000    37944347.075   152786160.979         458.972          28.000  
R07  23052687.271                         729.945          18.000                                                                  
R22  22670032.149                        1176.328          18.000    22670011.028                         896.087          13.000  
R09  21892567.048   116905086.2753       2897.732          39.000    21892564.245    90926166.0283       2255.408          35.000  
R21  21716292.379   116208265.618       -2939.056          34.000    21716288.532    90384195.276       -2285.895          34.000  
R20  24177896.004                       -4430.905          26.000                                                                  
S29  37756292.997   198410659.0302       -283.006          41.000  
J07  37351765.259   196284823.1732       -284.957          35.000    37351751.678   152949178.8621       -225.619          32.000  
G25  24570520.481   129118956.3663       2588.745          31.000                                                                  
E26  25040000.262   131586062.403       -2338.162          42.000    25039996.145   100825694.088       -1791.331          42.000  
C16  37529509.162   195425994.7351        247.226          43.000    37529501.179   151115752.195         190.810          44.000  
R06  22174990.397                        -318.179          16.000                                                                  
E29  25059912.427   131690760.592       -1037.522          41.000    25059911.401   100905875.292        -794.734          37.000  
E19  25447350.544                         330.714          15.000                                                                  
J03  36834923.361   193568828.1152       -152.844          38.000    36834916.674   150832804.779        -118.506          35.000  
J02  38032245.794                        -275.935          26.000                                                                  
E21  28569387.039                        1790.421          21.000    28569384.682                        1374.957          25.000  
E33                                                                  24688889.111                         188.188          19.000  
R16                                                                  21852368.241                        -327.628          24.000  
J04                                                                  40273095.029   164911584.833          98.507          30.000  
> 2025 10 27 01 25 52.0030000  0 30                     
S37  37351807.721   196285072.0412       -286.287          35.000  
G12  24535310.562                        1860.488          24.000    24535303.452                        1452.852          19.000  
G23  21600256.110   113510129.102        1284.668          44.000    21600251.782    88449421.609        1001.025          38.000  
S28  38174762.929                        -295.068          30.000  
G18  21656432.740   113805321.942       -1729.688          41.000    21656428.393    88679448.584       -1349.060          40.000  
G24  21519589.564   113086205.526       -2296.722          44.000    21519585.315    88119104.1371      -1790.286          28.000  
C25  23796964.225   123917037.1703      -1026.981          27.000                                                                  
C06  37222059.540   193825031.2443        426.650          37.000    37222050.167   149877778.031         331.086          43.000  
C08  37705569.556   196342796.733         565.587          35.000    37705557.659   151824665.324         437.782          40.000  
C09  38450017.041   200219327.353         534.777          41.000    38450008.629   154822249.216         412.552          42.000  
C23  23689108.119   123355400.0922       1663.029          35.000                                                                  
C13  37944237.486   197585602.290         590.781          30.000    37944233.012   152785701.403         455.897          32.000  
R07  23052556.053                         715.043          16.000                                                                  
R22  22669810.975                        1169.646          20.000    22669792.038                         906.735          15.000  
R09  21892023.568   116902184.2993       2896.476          37.000    21892022.878                        2250.652          26.000  
R16  21852449.268   116731861.5043       -430.914          33.000    21852451.305                        -334.401          24.000  
R21  21716841.876   116211206.120       -2941.791          38.000    21716838.149    90386482.318       -2288.275          31.000  
S29  37756347.044   198410943.000        -284.404          42.000  
G32  24510238.246                         980.118          24.000                                                                  
J07  37351819.975   196285108.7522       -285.753          34.000    37351814.033   152949434.0961       -223.612          36.000  
G25  24570026.328                        2584.271          23.000                                                                  
E26  25040444.102   131588401.437       -2342.523          39.000    25040441.766   100827486.412       -1794.689          40.000  
C16  37529459.958   195425749.017         245.532          40.000    37529454.055   151115562.145         189.901          41.000  
R06  22175050.520                        -320.219          18.000                                                                  
E29  25060110.190   131691799.318       -1041.691          39.000    25060109.128   100906671.159        -797.147          37.000  
E19  25447288.323                         329.530          16.000                                                                  
J03  36834946.165   193568981.2372       -158.344          31.000    36834944.691   150832940.3351       -119.769          37.000  
E33  24688858.636                         246.656          22.000    24688841.355                         188.954          20.000  
E21  28569039.613                        1795.983          20.000    28569043.306                        1375.633          26.000  
J04                                                                  40273070.973   164911484.200          99.243          34.000  
> 2025 10 27 01 25 53.0030000  0 28                     
S37  37351862.105                        -284.766          32.000  
G23  21600011.406   113508842.920        1286.469          44.000    21600006.994    88448419.222        1002.496          40.000  
S28  38174828.561                        -398.584          27.000  
G18  21656761.280   113807048.440       -1724.835          44.000    21656756.850    88680793.910       -1343.884          38.000  
G24  21520026.243   113088500.645       -2294.588          36.000    21520026.415    88120892.586       -1791.570          29.000  
C25  23797163.923                       -1025.761          25.000                                                                  
C06  37221980.070   193824600.6142        432.025          41.000    37221967.543   149877445.165         334.253          43.000  
C08  37705461.503   196342228.543         568.205          40.000    37705448.497   151824225.965         439.869          39.000  
C09  38449913.777   200218789.738         540.372          39.000    38449905.405   154821833.511         417.271          40.000  
C23  23688783.132                        1658.717          31.000                                                                  
C13  37944123.208   197585008.325         594.515          35.000    37944118.893   152785242.016         460.539          39.000  
R07  23052423.369                         709.162          14.000                                                                  
R22  22669592.241                        1164.850          21.000    22669573.073                         903.000          18.000  
R09  21891478.052   116899270.5153       2907.033          30.000                                                                  
R21  21717391.259   116214146.282       -2937.579          34.000    21717387.938    90388769.188       -2284.595          33.000  
S29  37756400.820   198411225.997        -280.938          43.000  
J07  37351874.608   196285424.9033       -284.025          28.000    37351869.819   152949661.966        -220.308          38.000  
G25  24569533.527   129113769.9853       2592.167          30.000                                                                  
E26  25040890.079   131590739.595       -2335.993          46.000    25040886.604   100829277.988       -1790.190          43.000  
C16  37529413.453   195425502.395         247.812          43.000    37529406.662   151115371.525         191.810          40.000  
E29  25060308.061   131692838.470       -1038.922          37.000    25060306.767   100907467.420        -795.632          42.000  
J03  36834968.374   193569064.8643       -149.353          33.000    36834974.273                        -117.511          32.000  
J02  38032344.985                        -303.223          28.000                                                                  
E33  24688813.189                         248.071          21.000    24688793.708                         187.626          21.000  
E21  28568692.423                        1801.833          22.000    28568701.999   115034323.7301       1379.329          28.000  
G12                                                                  24534947.676                        1452.226          21.000  
R16                                                                  21852530.379                        -343.370          24.000  
J04                                                                  40273045.429   164911383.421         100.010          34.000  
> 2025 10 27 01 25 54.0030000  0 27                     
S37  37351916.147   196285643.4163       -285.017          40.000  
G23  21599766.744   113507556.557        1285.822          43.000    21599762.294    88447416.847        1002.258          41.000  
G18  21657089.696   113808774.754       -1727.362          39.000    21657085.353    88682139.063       -1346.600          42.000  
G24  21520462.915   113090795.664       -2296.708          43.000    21520463.170    88122680.863       -1790.928          32.000  
C25  23797358.835                       -1026.079          26.000                                                                  
C06  37221897.231   193824169.4502        428.651          36.000    37221884.682   149877111.596         332.620          39.000  
C08  37705351.879   196341660.042         568.454          37.000    37705339.321   151823786.303         439.258          36.000  
C09  38449810.319   200218251.560         537.439          38.000    38449802.048   154821417.280         415.321          43.000  
C23  23688457.261   123352012.8363       1666.068          43.000                                                                  
C13  37944009.167   197584414.226         592.469          37.000    37944004.806   152784782.539         459.451          40.000  
R07  23052292.251                         713.187          15.000                                                                  
R22  22669371.767                        1165.573          19.000    22669355.840                         903.000          16.000  
R09  21890931.800   116896354.0642       2897.547          41.000    21890930.172    90919379.5823       2254.755          42.000  
R21  21717940.740   116217086.609       -2940.820          36.000    21717937.516    90391056.099       -2289.757          30.000  
R20  24180383.133                       -4429.475          22.000                                                                  
S29  37756454.637   198411508.410        -282.940          41.000  
J07  37351926.154   196285708.1842       -284.791          36.000    37351920.775   152949882.575        -220.267          42.000  
G25  24569032.347                        2589.803          30.000                                                                  
E26  25041334.303   131593077.035       -2338.834          42.000    25041332.010   100831069.003       -1792.200          46.000  
C16  37529364.706   195425255.092         246.470          39.000    37529359.119   151115180.292         190.137          44.000  
E29  25060505.983   131693877.412       -1040.169          42.000    25060504.416   100908263.493        -796.649          42.000  
J03  36834995.922   193569215.8382       -152.863          44.000    36834991.489   150833179.0641       -118.457          46.000  
J02  38032397.130                        -281.907          32.000                                                                  
E21  28568355.311                        1800.628          23.000    28568361.701   115032944.558        1377.671          27.000  
E33                                                                  24688742.947                         220.697          19.000  
G12                                                                  24534595.528                        1450.492          23.000  
J04                                                                  40273019.999   164911281.972         101.383          37.000  
> 2025 10 27 01 25 55.0030000  0 28                     
S37  37351970.082   196285926.9722       -283.623          41.000  
G23  21599522.114   113506271.022        1286.047          44.000    21599517.655    88446415.280        1003.363          35.000  
G18  21657418.446   113810502.983       -1729.230          44.000    21657414.178    88683485.790       -1348.871          36.000  
G24  21520899.790   113093091.230       -2295.286          40.000    21520899.154    88124469.498       -1788.925          39.000  
C25  23797561.371                       -1027.691          25.000                                                                  
C06  37221812.437   193823739.0762        429.529          40.000    37221802.127   149876778.913         332.578          43.000  
C08  37705242.929   196341091.584         569.646          39.000    37705230.171   151823346.899         441.244          41.000  
C09  38449707.193   200217714.286         535.994          39.000    38449698.872   154821001.891         415.169          42.000  
C23  23688134.914   123350344.6722       1669.337          44.000                                                                  
C13  37943895.237   197583820.614         593.663          41.000    37943890.841   152784323.528         458.738          39.000  
R07  23052157.552                         713.187          15.000                                                                  
R22  22669155.338                        1162.303          18.000    22669138.094                         905.283          14.000  
R09  21890374.903   116893380.5252       2899.046          44.000    21890373.390    90917067.1492       2253.489          40.000  
R21  21718490.564   116220028.820       -2943.036          36.000    21718487.441    90393344.646       -2289.008          30.000  
S29  37756508.588   198411792.226        -285.227          44.000  
J07  37351977.322   196285991.2451       -283.657          38.000    37351970.395   152950103.590        -220.167          37.000  
G25  24568531.548   129108504.2103       2590.727          30.000    24568541.675   100604070.1432       2019.387          31.000  
E26  25041777.785   131595415.281       -2338.469          42.000    25041776.502   100832860.645       -1791.182          41.000  
C16  37529317.631   195425008.518         246.433          41.000    37529311.645   151114989.598         189.727          44.000  
R06  22175233.425                        -324.419          19.000                                                                  
E29  25060703.672   131694917.163       -1039.300          43.000    25060702.163   100909060.067        -795.421          43.000  
J03  36835019.490   193569366.2511       -151.843          43.000    36835018.170   150833296.641        -118.372          39.000  
J02  38032447.153                        -280.642          32.000                                                                  
E21  28568012.423                        1791.095          23.000    28568012.004   115031567.283        1375.392          27.000  
E33                                                                  24688689.399                         220.697          16.000  
G12                                                                  24534243.648                        1452.560          25.000  
R16                                                                  21852691.843                        -335.582          24.000  
J04                                                                  40272995.735   164911180.340         102.122          39.000  
> 2025 10 27 01 25 56.0030000  0 29                     
S37  37352023.978   196286210.0352       -283.745          39.000  
G12  24533890.959                        1863.157          31.000    24533888.600                        1449.861          25.000  
G23  21599277.783   113504986.300        1286.279          39.000    21599273.336    88445414.155        1003.021          35.000  
S28  38174959.759                        -266.266          30.000  
G18  21657747.552   113812232.397       -1728.546          41.000    21657743.243    88684833.322       -1347.058          42.000  
G24  21521336.679   113095387.040       -2296.209          31.000    21521336.347    88126258.317       -1787.967          31.000  
C25  23797761.133                       -1028.975          26.000                                                                  
C06  37221732.389   193823309.3772        429.584          41.000    37221719.609   149876446.532         333.264          43.000  
C08  37705133.743   196340523.142         569.988          37.000    37705120.943   151822907.466         440.812          40.000  
C09  38449604.223   200217177.714         536.135          41.000    38449596.240                         413.027          29.000  
C23  23687815.563   123348676.2642       1669.198          44.000                                                                  
C13  37943781.354   197583227.704         594.481          35.000    37943776.922   152783865.185         460.054          24.000  
R07  23052027.260                         712.435          19.000                                                                  
R22  22668939.532                        1165.068          17.000    22668918.958                         902.197          13.000  
R09  21889832.762   116890484.8923       2901.870          41.000    21889826.187    90914812.3652       2253.838          37.000  
R21  21719039.969   116222969.1983      -2944.769          43.000    21719037.594    90395634.394       -2288.666          34.000  
R20  24182043.876                       -4428.435          22.000                                                                  
S29  37756562.727   198412077.006        -284.126          42.000  
J07  37352031.027                1       -283.795          36.000    37352024.802   152950324.223        -220.040          42.000  
G25  24568035.221   129105896.3133       2593.460          33.000    24568046.242                        2018.921          25.000  
E26  25042223.581   131597753.904       -2337.556          42.000    25042221.665   100834652.620       -1791.494          44.000  
C16  37529270.313   195424762.466         247.003          43.000    37529264.391   151114799.370         189.630          39.000  
R06  22175295.428                        -334.917          19.000                                                                  
E29  25060901.516   131695957.698       -1037.662          39.000    25060900.391   100909857.363        -796.335          31.000  
J03  36835050.089   193569516.907        -150.159          43.000    36835046.899   150833414.055        -113.391          35.000  
J02  38032504.674   199862160.1653       -281.568          31.000                                                                  
E21  28567671.316                        1802.494          24.000    28567669.575                        1383.282          26.000  
R16                                                                  21852773.323                        -337.990          24.000  
J04                                                                  40272970.998                         104.901          28.000  
> 2025 10 27 01 25 57.0030000  0 28                     
S37  37352077.730   196286492.5772       -282.989          42.000  
G12  24533540.610                        1860.095          31.000    24533533.444   100460718.2121       1449.547          27.000  
G23  21599033.363   113503701.630        1285.974          40.000    21599028.784    88444413.055        1001.965          37.000  
S28  38175017.618                        -282.480          36.000  
G18  21658076.693   113813962.510       -1729.364          44.000    21658072.725    88686181.560       -1347.894          43.000  
G24  21521774.834                1      -2318.092          26.000    21521776.366                       -1792.153          23.000  
C25  23797959.777                       -1022.853          26.000                                                                  
C06  37221649.615   193822878.9691        430.529          43.000    37221637.055   149876114.349         332.999          39.000  
C08  37705024.494   196339956.5271        566.922          26.000    37705011.801   151822468.075         441.383          33.000  
C09  38449500.760   200216639.5693        538.345          40.000    38449494.779   154820182.2033        416.241          41.000  
C23  23687492.128   123347007.0731       1668.449          40.000                                                                  
C13  37943667.378   197582634.915         593.900          38.000    37943662.976   152783406.683         459.551          36.000  
R22  22668723.417                        1165.207          17.000                                                                  
R09  21889293.058                        2897.510          44.000    21889281.616    90912557.318        2254.408          39.000  
R21  21719589.400   116225914.356       -2945.386          45.000    21719588.066    90397925.119       -2289.380          39.000  
R20  24182872.655                       -4431.557          22.000                                                                  
S29  37756617.118   198412362.078        -284.155          47.000  
J07  37352083.640   196286524.3403       -282.623          38.000    37352077.471   152950544.333        -219.268          41.000  
G25  24567556.317                        2584.769          30.000    24567550.859                        2022.148          25.000  
E26  25042668.378   131600092.484       -2338.567          46.000    25042667.332   100836444.552       -1792.154          45.000  
C16  37529223.030   195424516.311         246.969          40.000    37529217.108   151114608.949         190.918          44.000  
R06  22175356.445                        -332.074          18.000                                                                  
E29  25061099.479   131696998.379       -1039.159          40.000    25061098.280   100910654.775        -796.559          37.000  
J03  36835079.182   193569667.199        -150.977          44.000    36835076.031   150833531.207        -116.632          37.000  
J02  38032553.206                        -275.684          31.000                                                                  
E21  28567329.930                        1798.584          26.000    28567334.547   115028818.4051       1376.298          27.000  
R16                                                                  21852853.739                        -338.687          23.000  
J04                                                                  40272945.716   164910980.2011        102.538          28.000  
> 2025 10 27 01 25 58.0030000  0 27                     
S37  37352131.547   196286775.3292       -284.743          44.000  
G12  24533190.189   128922783.8373       1859.605          30.000    24533179.899                        1448.587          27.000  
G23  21598789.097   113502417.611        1284.869          38.000    21598784.558    88443412.609        1000.533          31.000  
S28  38175073.326   200611354.5113       -282.716          42.000  
G18  21658406.144   113815693.826       -1730.658          46.000    21658402.642    88687530.618       -1348.224          43.000  
C25  23798160.482                       -1025.037          31.000                                                                  
C06  37221566.568   193822449.756         430.985          38.000    37221554.607   149875782.407         332.664          41.000  
C08  37704915.774   196339390.6303        566.888          27.000    37704902.689   151822028.556         440.838          30.000  
C09  38449399.156   200216103.8202        536.645          42.000    38449391.558   154819767.7822        415.613          40.000  
C23  23687174.760   123345338.833        1667.849          44.000                                                                  
C13  37943552.806                1        592.781          28.000    37943549.186   152782948.428         458.378          29.000  
R22  22668506.634                        1176.697          18.000    22668485.254                         905.262          12.000  
R09  21888748.697                        2896.436          44.000    21888741.915    90910302.581        2255.895          42.000  
R21  21720140.134   116228860.909       -2946.185          48.000    21720138.672    90400216.992       -2290.454          37.000  
R20  24183703.005                       -4437.472          24.000                                                                  
S29  37756671.713   198412647.812        -283.934          46.000  
J07  37352135.080   196286807.0802       -284.402          41.000    37352131.600   152950764.604        -219.867          39.000  
G25  24567067.918                        2591.187          27.000    24567065.032                        2017.619          31.000  
E26  25043113.591   131602431.762       -2338.845          46.000    25043112.066   100838236.955       -1791.434          41.000  
C16  37529175.851   195424270.552         247.740          38.000    37529169.992   151114419.002         189.967          38.000  
R06  22175420.484                        -345.306          15.000                                                                  
E29  25061297.774   131698039.369       -1040.308          37.000    25061296.106   100911452.499        -796.573          33.000  
J03  36835105.982   193569817.643        -148.779          44.000    36835104.009   150833592.5561       -116.473          38.000  
E21  28566985.834                        1813.729          25.000    28566990.473                        1377.724          29.000  
G24                                                                  21522212.820                       -1788.823          24.000  
R16                                                                  21852936.106                        -329.635          22.000  
J04                                                                  40272921.637   164910877.751         103.892          33.000  
> 2025 10 27 01 25 59.0030000  0 26                     
S37  37352185.284   196287058.3692       -283.666          41.000  
G12  24532834.167   128920913.5003       1855.531          29.000    24532827.843                        1452.850          27.000  
G23  21598544.789   113501133.495        1281.384          35.000    21598540.799                        1000.183          29.000  
S28  38175128.938   200611637.7812       -285.195          40.000  
G18  21658735.735   113817425.785       -1734.753          45.000    21658732.253    88688879.981       -1352.570          36.000  
G24  21522651.833   113102298.3343      -2296.962          24.000    21522650.161                       -1789.922          24.000  
C25  23798355.124                       -1028.805          25.000                                                                  
C06  37221484.205   193822021.024         425.602          41.000    37221472.265   149875450.714         329.230          42.000  
C08  37704809.435                         570.658          27.000    37704793.554   151821589.129         438.875          30.000  
C09  38449296.236   200215568.3382        534.261          41.000    38449283.693   154819353.6132        413.008          41.000  
C23  23686853.962   123343671.528        1666.644          47.000                                                                  
C13  37943440.873   197581452.9773        597.446          29.000    37943436.080   152782493.8143        457.701          29.000  
R07  23051640.489                         709.025          19.000                                                                  
R22  22668287.322                        1164.512          18.000    22668264.026                         943.491          12.000  
R09  21888204.627   116881790.5463       2894.242          42.000    21888201.219    90908048.658        2254.193          38.000  
R21  21720691.935   116231807.532       -2949.097          46.000    21720689.452    90402508.750       -2295.325          40.000  
S29  37756726.064   198412933.216        -286.001          38.000  
J07  37352188.812   196287090.1342       -283.628          38.000    37352185.052   152950953.1541       -221.766          42.000  
G25  24566570.254                        2591.158          29.000    24566573.042                        2009.732          29.000  
E26  25043558.940   131604771.832       -2340.662          41.000    25043557.136   100840029.809       -1794.127          46.000  
C16  37529128.778   195424025.298         244.739          41.000    37529122.926   151114229.402         188.242          42.000  
E29  25061495.736   131699079.866       -1041.404          35.000    25061494.183   100912249.803        -799.284          33.000  
J03  36835134.612   193569968.871        -151.654          40.000    36835133.321   150833710.297        -119.128          41.000  
E21  28566643.568                        1798.508          24.000    28566649.151                        1373.352          28.000  
R16                                                                  21853017.701                        -334.960          22.000  
J04                                                                  40272897.294   164910775.290         102.551          28.000  
> 2025 10 27 01 26 00.0030000  0 28                     
S37  37352239.326   196287342.4272       -283.223          42.000  
G12  24532476.476   128919033.6712       1865.642          32.000    24532472.870                        1455.412          26.000  
G23  21598300.554   113499849.688        1283.209          35.000    21598295.988    88441413.4801        999.310          30.000  
S28  38175182.616   200611922.0192       -284.861          44.000  
G18  21659065.537   113819159.047       -1733.313          46.000    21659061.991    88690230.633       -1352.295          33.000  
C25  23798555.302                       -1028.644          25.000                                                                  
C06  37221401.799   193821593.176         427.323          43.000    37221390.145   149875119.894         330.646          40.000  
C08  37704700.496   196338269.6993        568.902          28.000    37704684.083   151821148.859         443.729          30.000  
C09  38449191.124   200215034.0252        533.985          39.000    38449182.862   154818940.3722        411.896          38.000  
C23  23686533.369   123342005.696        1665.613          45.000                                                                  
C13  37943324.797   197580849.0013        592.704          29.000    37943321.847   152782035.2002        458.514          28.000  
R07  23051512.006                         713.035          22.000                                                                  
R22  22668070.352                        1157.833          19.000    22668044.770                         901.003          11.000  
R09  21887662.899   116878894.3482       2896.642          44.000    21887660.361    90905796.301        2252.902          41.000  
R16  21853102.360                        -434.915          26.000    21853099.311                        -337.587          21.000  
R21  21721244.266   116234755.895       -2950.653          45.000    21721240.470    90404801.832       -2293.951          36.000  
S29  37756780.462   198413219.761        -288.219          41.000  
J07  37352243.523   196287374.2042       -283.047          38.000    37352239.448   152951174.533        -220.244          39.000  
G25  24566068.487   129095560.8173       2588.676          35.000    24566075.310   100593971.1211       2018.567          23.000  
E26  25044003.662   131607113.114       -2339.730          44.000    25044002.864   100841823.933       -1794.695          42.000  
C16  37529081.834   195423781.118         244.168          39.000    37529076.031   151114040.452         188.642          43.000  
E29  25061693.742   131700120.768       -1041.829          32.000    25061692.148   100913047.297        -796.648          34.000  
J03  36835163.270   193570121.357        -151.300          40.000    36835159.949   150833829.125        -117.871          41.000  
J02  38032709.112   199863234.8583       -283.449          30.000                                                                  
E33  24688491.472                         242.381          15.000                                                                  
E21  28566302.484                        1795.779          25.000    28566306.635                        1386.828          26.000  
G24                                                                  21523086.758                       -1791.140          25.000  
J04                                                                  40272872.170   164910673.023         103.062          32.000  
> 2025 10 27 01 26 01.0030000  0 29                     
S37  37352293.509   196287626.7852       -284.091          42.000  
G12  24532131.069                        1860.263          31.000    24532118.060                        1448.176          25.000  
G23  21598056.278   113498566.153        1283.124          35.000    21598052.339    88440413.298        1001.465          32.000  
S28  38175236.881   200612206.9352       -283.824          46.000  
G18  21659395.789   113820893.598       -1734.387          44.000    21659392.090    88691582.224       -1352.197          39.000  
C25  23798751.033                       -1027.004          26.000                                                                  
C06  37221319.746   193821165.999         428.777          39.000    37221308.042   149874789.770         330.204          42.000  
C08  37704589.728   196337692.8592        568.447          28.000    37704575.235   151820700.1083        439.093          30.000  
C09  38449088.593   200214500.6262        531.000          36.000    38449082.669   154818527.8042        413.367          47.000  
C23  23686213.712   123340340.523        1664.286          45.000                                                                  
C13  37943214.074   197580256.0972        590.529          29.000    37943207.927                         458.856          27.000  
R07  23051381.872                         719.939          24.000                                                                  
R22  22667854.353                        1164.291          18.000    22667829.475                         899.522          12.000  
R09  21887119.976   116875998.3711       2897.190          41.000    21887118.071    90903544.274        2253.648          39.000  
R16  21853186.563   116735799.7513       -436.805          26.000    21853180.617                        -336.350          21.000  
R21  21721795.080   116237705.699       -2949.768          48.000    21721791.719    90407096.167       -2294.446          38.000  
R20  24186200.117   129334480.3363      -4436.987          30.000                                                                  
S29  37756834.967   198413506.907        -288.428          40.000  
G32  24508562.650                         977.591          28.000                                                                  
J07  37352298.408   196287658.0361       -284.049          38.000    37352294.258   152951396.136        -221.046          35.000  
G25  24565574.026   129092962.3622       2582.509          32.000    24565585.027                        2014.664          30.000  
E26  25044449.412   131609455.362       -2342.451          42.000    25044448.403   100843618.564       -1794.100          43.000  
C16  37529035.085   195423537.376         243.936          42.000    37529029.227   151113851.993         189.946          42.000  
E29  25061891.684   131701161.634       -1042.467          32.000    25061890.140   100913844.636        -796.983          33.000  
J03  36835192.332   193570274.384        -153.577          44.000    36835191.714   150833948.402        -118.524          42.000  
J02  38032762.088                        -281.784          30.000                                                                  
E21  28565963.595                        1798.075          24.000    28565970.295                        1370.326          24.000  
G24                                                                  21523523.424                       -1788.340          24.000  
J04                                                                  40272847.624   164910577.8521        102.313          27.000  
> 2025 10 27 01 26 02.0030000  0 29                     
S37  37352347.470   196287910.595        -284.140          42.000  
G12  24531775.869                        1863.537          30.000    24531767.599                        1455.563          25.000  
G23  21597812.073   113497282.669        1283.301          32.000    21597806.333                         998.321          27.000  
S28  38175291.004   200612491.6612       -283.224          45.000  
G18  21659725.939   113822628.415       -1733.545          44.000    21659722.196    88692933.896       -1350.269          40.000  
G24  21523964.422   113109195.6182      -2295.425          29.000    21523962.624                       -1783.747          24.000  
C25  23798952.454                       -1029.809          25.000                                                                  
C06  37221237.707   193820738.597         428.691          39.000    37221225.913   149874459.126         330.220          35.000  
C08  37704479.170                         569.954          26.000    37704466.516                         441.574          28.000  
C09  38448987.727   200213966.6832        533.882          36.000    38448980.508   154818114.6332        414.410          45.000  
C23  23685893.749   123338674.933        1668.144          43.000                                                                  
C13  37943098.042                         591.322          22.000    37943091.830                         457.327          26.000  
R07  23051254.613                         710.332          25.000                                                                  
R22  22667639.114                        1156.918          18.000    22667613.441                         934.164          12.000  
R09  21886577.531   116873102.742        2896.490          44.000    21886575.714    90901292.002        2252.559          42.000  
R16  21853269.598   116736243.0813       -438.156          26.000    21853262.861                        -338.412          21.000  
R21  21722345.443   116240655.665       -2949.023          47.000    21722343.056    90409390.671       -2295.093          38.000  
S29  37756889.484   198413793.759        -285.988          43.000  
G32  24508376.528                         984.949          27.000                                                                  
J07  37352353.078   196287941.882        -284.688          38.000    37352348.866   152951617.312        -222.238          40.000  
G25  24565082.323   129090377.9172       2595.836          28.000    24565092.728   100589947.7301       2020.168          30.000  
E26  25044895.096   131611797.370       -2341.095          44.000    25044893.863   100845413.175       -1794.497          43.000  
G10  24522485.462                        2492.958          22.000                                                                  
C16  37528988.223   195423293.284         245.248          38.000    37528982.393   151113663.248         189.561          43.000  
E29  25062089.617   131702202.214       -1040.605          36.000    25062088.095   100914642.195        -797.673          28.000  
J03  36835221.343   193570426.890        -152.972          42.000    36835219.865   150834067.142        -117.743          42.000  
J02  38032816.362   199863798.8303       -285.126          30.000                                                                  
E21  28565619.900                        1796.798          24.000    28565626.530                        1377.902          25.000  
J04                                                                  40272823.294   164910478.9801        103.247          27.000  
> 2025 10 27 01 26 03.0030000  0 30                     
S37  37352401.409   196288193.977        -284.965          40.000  
G12  24531406.080                        1862.109          34.000    24531410.703   100452025.2551       1454.235          31.000  
G23  21597567.962   113495999.366        1282.455          33.000    21597566.363    88438423.4301        997.700          28.000  
S28  38175345.117   200612776.1522       -284.797          44.000  
G18  21660056.101   113824363.536       -1735.760          45.000    21660052.432    88694286.075       -1352.411          44.000  
G24  21524401.750                       -2282.109          24.000    21524400.006                       -1785.608          25.000  
C25  23799149.992                       -1028.425          25.000                                                                  
C06  37221155.711   193820311.034         426.278          37.000    37221143.846   149874128.455         330.930          42.000  
C08  37704372.174                         565.679          26.000    37704356.851                         441.618          27.000  
C09  38448886.407   200213431.8391        533.912          36.000    38448877.783   154817697.7183        413.348          45.000  
C23  23685573.880   123337009.507        1664.705          45.000                                                                  
C13  37942984.476   197579077.0763        593.246          28.000    37942979.603                         459.686          26.000  
R07  23051124.954                         719.557          25.000                                                                  
R22  22667423.105                        1161.067          19.000    22667392.250                         913.836          11.000  
R09  21886034.981   116870206.814        2895.321          41.000    21886033.319    90899039.622        2252.859          42.000  
R16  21853350.036                        -432.445          26.000    21853346.841                        -336.257          22.000  
R21  21722896.937   116243606.080       -2950.037          49.000    21722894.425    90411685.384       -2295.923          41.000  
R20  24187857.936                       -4437.709          27.000                                                                  
S29  37756944.086   198414080.488        -291.990          35.000  
G32  24508192.526                         978.727          26.000                                                                  
J07  37352406.551   196288225.210        -284.447          36.000    37352403.030   152951846.0681       -221.620          44.000  
G25  24564590.948   129087795.8222       2596.951          29.000    24564597.472                        2017.256          29.000  
E26  25045340.193   131614139.337       -2342.378          43.000    25045340.383   100847207.629       -1794.522          45.000  
G10  24522009.983                        2497.132          21.000                                                                  
C16  37528941.364   195423049.231         242.510          41.000    37528935.549   151113474.653         187.740          37.000  
E29  25062287.741   131703242.898       -1041.346          35.000    25062286.003   100915439.480        -796.643          33.000  
J03  36835250.244   193570578.899        -151.752          44.000    36835249.308   150834187.7451       -119.702          38.000  
J02  38032879.164                        -283.857          31.000                                                                  
E21  28565285.134                        1803.172          23.000    28565295.536                        1380.115          25.000  
J04                                                                  40272797.830                         102.298          26.000  
> 2025 10 27 01 26 04.0030000  0 29                     
S37  37352455.093   196288476.538        -282.439          41.000  
G12  24531051.302                        1859.108          30.000    24531046.926                        1456.030          25.000  
G23  21597323.857                1       1284.725          29.000    21597322.912                        1002.311          27.000  
S28  38175399.174   200613059.5223       -281.458          46.000  
G18  21660386.323   113826098.704       -1734.473          43.000    21660382.503    88695638.161       -1351.221          40.000  
C25  23799348.424                       -1028.171          24.000                                                                  
C06  37221073.633   193819882.956         427.799          39.000    37221061.660   149873797.457         332.048          42.000  
C08  37704263.487                         573.305          25.000    37704252.753                         444.595          27.000  
C09  38448783.838   200212897.403         534.075          38.000    38448774.625   154817284.2062        414.321          38.000  
C23  23685253.845   123335343.546        1666.237          43.000                                                                  
C13  37942874.453                         598.585          23.000    37942867.256                         458.635          26.000  
R07  23050995.486                         713.227          24.000                                                                  
R22  22667208.323                        1171.101          19.000                                                                  
R09  21885492.538   116867310.426        2897.134          46.000    21885490.751    90896786.836        2255.912          36.000  
R16  21853429.445                        -434.657          35.000    21853429.459                        -333.392          22.000  
R21  21723448.303   116246556.480       -2947.284          43.000    21723445.753    90413980.091       -2293.121          39.000  
S29  37756998.410   198414365.2663       -286.504          37.000  
J07  37352460.047   196288507.836        -282.327          36.000    37352455.511   152952066.287        -219.888          45.000  
G25  24564105.082                        2596.838          29.000    24564108.868                        2018.741          27.000  
E26  25045785.975   131616480.817       -2340.032          44.000    25045785.833   100849001.906       -1793.743          44.000  
G10  24521535.476                        2498.429          20.000                                                                  
C16  37528894.382   195422804.590         245.489          39.000    37528888.559   151113285.280         190.080          41.000  
R10  25097763.259                        3649.087          10.000                                                                  
E29  25062486.027   131704283.435       -1037.248          35.000    25062483.897   100916236.745        -794.446          33.000  
J03  36835279.097   193570730.315        -150.256          42.000    36835279.138   150834305.693        -117.450          42.000  
E33  24688307.345                         244.434          20.000                                                                  
E21  28564942.615                        1800.487          24.000    28564947.087                        1382.353          26.000  
G24                                                                  21524836.287                       -1798.217          25.000  
J04                                                                  40272772.780                         106.455          26.000  
> 2025 10 27 01 26 05.0030000  0 27                     
S37  37352509.355   196288761.417        -284.627          41.000  
G23  21597082.188                        1285.633          29.000    21597082.351                        1005.903          26.000  
S28  38175453.612   200613345.311        -285.584          43.000  
G18  21660717.041   113827836.474       -1736.578          44.000    21660713.170    88696992.393       -1353.979          41.000  
C25  23799541.378                       -1030.011          30.000                                                                  
C06  37220991.779   193819457.064         426.145          39.000    37220979.954   149873468.270         329.327          43.000  
C08  37704160.131                         568.345          25.000    37704143.692                         445.158          26.000  
C09  38448681.518   200212364.916         532.529          37.000    38448672.319   154816872.4362        412.713          39.000  
C23  23684934.280   123333680.138        1663.895          40.000                                                                  
C13  37942760.063                         592.314          23.000    37942753.664                         458.186          25.000  
R07  23050865.473                         708.805          24.000                                                                  
R22  22666991.512                        1148.900          19.000    22666960.997                         882.802          12.000  
R09  21884950.648   116864417.245        2894.104          47.000    21884948.846    90894536.3002       2250.702          43.000  
R16  21853508.584                        -442.104          28.000    21853511.059                        -345.832          22.000  
R21  21724000.192   116249509.368       -2952.386          51.000    21723997.585    90416276.724       -2295.599          41.000  
S29  37757053.116   198414653.3312       -288.020          44.000  
J07  37352514.233   196288792.717        -284.919          37.000    37352509.115   152952288.307        -222.346          40.000  
G25  24563626.249   129082726.3403       2586.031          34.000    24563627.261                        2013.430          27.000  
E26  25046231.876   131618824.905       -2343.968          43.000    25046231.365   100850797.893       -1795.536          42.000  
C16  37528847.774   195422562.358         242.954          42.000    37528841.939   151113097.934         188.064          39.000  
E29  25062690.563                       -1039.866          30.000    25062685.307                        -800.316          28.000  
J03  36835308.341   193570884.075        -153.491          43.000    36835307.879   150834425.425        -119.983          43.000  
E33  24688260.542                         239.731          21.000                                                                  
E21  28564601.067                        1793.896          24.000    28564608.491                        1376.742          25.000  
G12                                                                  24530703.142                        1446.549          27.000  
G24                                                                  21525273.456                       -1794.183          25.000  
J04                                                                  40272746.961                         105.035          30.000  
> 2025 10 27 01 26 06.0030000  0 27                     
S37  37352563.676   196289046.669        -285.983          44.000  
G23  21596840.792                        1286.459          32.000    21596839.406                         995.628          25.000  
S28  38175508.047   200613631.797        -288.196          43.000  
G18  21661047.931   113829575.313       -1739.154          46.000    21661044.158    88698347.214       -1357.263          40.000  
C25  23799725.868   123931417.3303      -1032.641          46.000                                                                  
C06  37220910.102   193819031.889         424.036          43.000    37220898.292   149873139.327         326.765          37.000  
C08  37704050.686                         568.494          25.000    37704032.566                         440.520          25.000  
C09  38448579.286   200211833.208         529.961          41.000    38448570.140   154816461.2852        409.976          39.000  
C23  23684614.811   123332017.507        1661.542          47.000                                                                  
C13  37942649.143                         599.240          25.000    37942639.717                         461.199          25.000  
R07  23050734.750                         709.277          30.000                                                                  
R22  22666777.472                        1151.148          21.000    22666750.073                         896.738          13.000  
R09  21884408.805   116861524.458        2891.724          41.000    21884407.038    90892286.4502       2248.028          39.000  
R16  21853580.505   116737904.4873       -439.203          47.000    21853587.238    90796175.4113       -341.870          43.000  
R21  21724552.458   116252463.333       -2955.261          46.000    21724549.695    90418574.304       -2298.456          40.000  
S29  37757108.104   198414941.7682       -289.137          45.000  
J07  37352568.345   196289077.944        -286.036          40.000    37352563.478   152952510.482        -223.051          43.000  
G25  24563139.272   129080167.6193       2587.662          37.000    24563142.536                        2015.787          28.000  
E26  25046678.555   131621169.727       -2345.489          44.000    25046677.857   100852594.604       -1798.188          47.000  
C16  37528801.420   195422320.372         240.991          42.000    37528795.555   151112911.078         185.775          42.000  
E29  25062886.072                       -1037.197          30.000    25062890.087                        -800.130          31.000  
J03  36835337.654   193571038.373        -155.084          44.000    36835336.974   150834545.842        -120.490          39.000  
E33  24688213.676                         231.719          29.000    24688199.424                         179.315          25.000  
E21  28564261.674                        1796.723          23.000    28564266.738                        1373.338          25.000  
G12                                                                  24530355.967                        1448.142          25.000  
G24                                                                  21525711.040                       -1789.213          30.000  
J04                                                                  40272721.918                         101.026          34.000  
> 2025 10 27 01 26 07.0030000  0 27                     
S37  37352618.054   196289332.983        -283.234          43.000  
G23  21596596.607   113490880.7683       1294.041          27.000    21596593.353    88434438.7791       1003.912          35.000  
S28  38175562.834   200613919.934        -285.614          42.000  
G18  21661379.190   113831316.202       -1737.061          46.000    21661375.261    88699703.748       -1354.205          40.000  
G24  21526149.989   113120680.9693      -2299.103          40.000    21526147.239    88145974.4221      -1791.679          36.000  
C25  23799923.634   123932449.2962      -1028.326          43.000                                                                  
C06  37220828.664   193818608.085         427.172          44.000    37220816.885   149872811.660         328.744          39.000  
C08  37703938.558   196334301.8733        569.561          30.000    37703924.136   151818078.3243        451.018          30.000  
C09  38448477.430   200211303.232         532.189          41.000    38448468.276   154816051.4422        411.855          44.000  
C23  23684295.533   123330356.434        1663.933          48.000                                                                  
C13  37942535.833                         613.062          25.000    37942527.271                         460.849          29.000  
R07  23050602.678                         716.010          30.000                                                                  
R22  22666563.368                        1157.542          22.000                                                                  
R09  21883867.431                1       2892.177          35.000    21883867.790    90890047.2443       2253.302          32.000  
R16  21853662.495   116738342.4162       -437.000          48.000    21853664.379    90796495.4842       -339.215          40.000  
R21  21725104.960   116255419.939       -2953.754          45.000    21725102.143    90420873.723       -2297.009          41.000  
S29  37757163.219   198415231.9522       -287.996          42.000  
J07  37352622.671   196289364.245        -283.335          40.000    37352617.831   152952733.582        -221.482          42.000  
G25  24562648.748                        2591.919          29.000    24562651.086                        2019.148          27.000  
E26  25047125.427   131623516.420       -2342.767          46.000    25047124.477   100854392.567       -1794.982          44.000  
C16  37528755.206   195422080.040         243.758          42.000    37528749.380   151112725.089         187.790          43.000  
E29  25063086.092   131707405.8851      -1032.287          28.000    25063083.214   100918650.3451       -791.245          29.000  
J03  36835367.349   193571194.172        -153.015          46.000    36835366.435   150834667.115        -119.818          40.000  
E33  24688163.456                         238.858          28.000    24688154.697    99408968.1201        180.280          27.000  
E21  28563921.233                        1801.532          20.000    28563925.748                        1382.446          26.000  
G12                                                                  24530003.912                        1452.369          24.000  
J04                                                                  40272695.217   164909953.6441        103.447          42.000  
